[
    {
      "code": 1010010000,
      "area_type_id": 1,
      "name": "กรุงเทพมหานคร",
      "region_id": 1,
      "inspection_id": 1,
      "address": "304/2 ถนนศรีอยุธยา",
      "district_id": 37,
      "province_id": 1,
      "zip_code": 10400,
      "tel": "23545255",
      "num_school": 37,
      "num_teacher": 0,
      "num_student": 1167,
      "num_person": 0,
      "website": "www.bkkp.go.th",
      "latitude": 13.7601202,
      "longtitude": 100.5262241
    },
    {
      "code": 1010110000,
      "area_type_id": 2,
      "name": "กรุงเทพมหานคร เขต 1",
      "region_id": 1,
      "inspection_id": 1,
      "address": "อาคารหอประชุมพญาไท ซ.ศรีอยุธยา 5 ถนนศรีอยุธยา",
      "district_id": 37,
      "province_id": 1,
      "zip_code": 10400,
      "tel": "23543884",
      "num_school": 76,
      "num_teacher": 0,
      "num_student": 5183,
      "num_person": 0,
      "website": "www.sesao1.go.th",
      "latitude": 13.7581583,
      "longtitude": 100.5128226
    },
    {
      "code": 1010120000,
      "area_type_id": 2,
      "name": "กรุงเทพมหานคร เขต 2",
      "region_id": 1,
      "inspection_id": 1,
      "address": "1126 ถนนลาดพร้าว",
      "district_id": 17,
      "province_id": 1,
      "zip_code": 10300,
      "tel": "29304490",
      "num_school": 52,
      "num_teacher": 0,
      "num_student": 5552,
      "num_person": 0,
      "website": "www.sesao2.go.th",
      "latitude": 13.7968092,
      "longtitude": 100.5831609
    },
    {
      "code": 1011010000,
      "area_type_id": 1,
      "name": "สมุทรปราการ เขต 1",
      "region_id": 4,
      "inspection_id": 8,
      "address": "34/2 ถนนสุขุมวิท",
      "district_id": 51,
      "province_id": 2,
      "zip_code": 10270,
      "tel": "023848089-92",
      "num_school": 72,
      "num_teacher": 0,
      "num_student": 2291,
      "num_person": 0,
      "website": "www.sp-area1.go.th",
      "latitude": 13.6223751,
      "longtitude": 100.5858066
    },
    {
      "code": 1011020000,
      "area_type_id": 1,
      "name": "สมุทรปราการ เขต 2",
      "region_id": 4,
      "inspection_id": 8,
      "address": "1/3 หมู่ 8",
      "district_id": 53,
      "province_id": 2,
      "zip_code": 10540,
      "tel": "023300141-4",
      "num_school": 71,
      "num_teacher": 0,
      "num_student": 1346,
      "num_person": 0,
      "website": "www.spn2.go.th",
      "latitude": 13.6157763,
      "longtitude": 100.5639366
    },
    {
      "code": 1011110000,
      "area_type_id": 2,
      "name": "สมุทรปราการ",
      "region_id": 4,
      "inspection_id": 8,
      "address": "34/6 อาคารวีระ รอดเรือง",
      "district_id": 51,
      "province_id": 2,
      "zip_code": 10270,
      "tel": "23826100",
      "num_school": 25,
      "num_teacher": 0,
      "num_student": 3019,
      "num_person": 0,
      "website": "www.sesaosp.go.th",
      "latitude": 13.6228245,
      "longtitude": 100.5528527
    },
    {
      "code": 1012010000,
      "area_type_id": 1,
      "name": "นนทบุรี เขต 1",
      "region_id": 1,
      "inspection_id": 1,
      "address": "ถนนรัตนาธิเบศร์",
      "district_id": 57,
      "province_id": 3,
      "zip_code": 11000,
      "tel": "25911301",
      "num_school": 32,
      "num_teacher": 0,
      "num_student": 1219,
      "num_person": 0,
      "website": "www.nonedu1.org",
      "latitude": 13.8624986,
      "longtitude": 100.5136921
    },
    {
      "code": 1012020000,
      "area_type_id": 1,
      "name": "นนทบุรี เขต 2",
      "region_id": 1,
      "inspection_id": 1,
      "address": "79/4 หมู่ 6 ถนนกาญจนาภิเษก",
      "district_id": 59,
      "province_id": 3,
      "zip_code": 11140,
      "tel": "25950531",
      "num_school": 63,
      "num_teacher": 0,
      "num_student": 1465,
      "num_person": 0,
      "website": "www.nonedu2.net",
      "latitude": 13.8784782,
      "longtitude": 100.4012186
    },
    {
      "code": 1012110000,
      "area_type_id": 2,
      "name": "นนทบุรี",
      "region_id": 1,
      "inspection_id": 1,
      "address": "85 หมู่ 5 ถนนรัตนาธิเบศร์",
      "district_id": 57,
      "province_id": 3,
      "zip_code": 11000,
      "tel": "021493923-6",
      "num_school": 18,
      "num_teacher": 0,
      "num_student": 2102,
      "num_person": 0,
      "website": "www.spmnonthaburi.go.th",
      "latitude": 13.8784644,
      "longtitude": 100.3215579
    },
    {
      "code": 1013010000,
      "area_type_id": 1,
      "name": "ปทุมธานี เขต 1",
      "region_id": 1,
      "inspection_id": 2,
      "address": "99/4 ถนนปทุมธานีเฉลิมพระเกียรติ",
      "district_id": 63,
      "province_id": 4,
      "zip_code": 12000,
      "tel": "25816047",
      "num_school": 102,
      "num_teacher": 0,
      "num_student": 2214,
      "num_person": 0,
      "website": "www.pathum1.go.th",
      "latitude": 14.0234947,
      "longtitude": 100.4530862
    },
    {
      "code": 1013020000,
      "area_type_id": 1,
      "name": "ปทุมธานี เขต 2",
      "region_id": 1,
      "inspection_id": 2,
      "address": "99 หมู่ที่ 16 ถนนวิภาวดีรังสิต",
      "district_id": 68,
      "province_id": 4,
      "zip_code": 12130,
      "tel": "25233348",
      "num_school": 67,
      "num_teacher": 0,
      "num_student": 1578,
      "num_person": 0,
      "website": "www.ptt2.go.th",
      "latitude": 13.9534081,
      "longtitude": 100.6189709
    },
    {
      "code": 1013110000,
      "area_type_id": 2,
      "name": "ปทุมธานี",
      "region_id": 1,
      "inspection_id": 2,
      "address": "17/13-14 ถนนปทุมสัมพันธ์",
      "district_id": 63,
      "province_id": 4,
      "zip_code": 12000,
      "tel": "025933530 ต่อ 0,402",
      "num_school": 22,
      "num_teacher": 0,
      "num_student": 3229,
      "num_person": 0,
      "website": "www.ssps4.go.th",
      "latitude": 14.0195771,
      "longtitude": 100.5263093
    },
    {
      "code": 1014010000,
      "area_type_id": 1,
      "name": "พระนครศรีอยุธยา เขต 1",
      "region_id": 1,
      "inspection_id": 1,
      "address": "222/242 หมู่ 6",
      "district_id": 70,
      "province_id": 5,
      "zip_code": 13000,
      "tel": "35352971",
      "num_school": 176,
      "num_teacher": 0,
      "num_student": 2384,
      "num_person": 0,
      "website": "www.aya1.go.th",
      "latitude": 14.3771545,
      "longtitude": 100.5388655
    },
    {
      "code": 1014020000,
      "area_type_id": 1,
      "name": "พระนครศรีอยุธยา เขต 2",
      "region_id": 1,
      "inspection_id": 1,
      "address": "43/20 หมู่ 2 ถนนกิตติขจร",
      "district_id": 81,
      "province_id": 5,
      "zip_code": 13110,
      "tel": "35203144",
      "num_school": 158,
      "num_teacher": 0,
      "num_student": 1333,
      "num_person": 0,
      "website": "www.ayutthaya2.go.th",
      "latitude": 14.3235519,
      "longtitude": 100.4026386
    },
    {
      "code": 1014110000,
      "area_type_id": 2,
      "name": "พระนครศรีอยุธยา",
      "region_id": 1,
      "inspection_id": 1,
      "address": "53 หมู่ 2 ถนนป่าโทน",
      "district_id": 70,
      "province_id": 5,
      "zip_code": 13000,
      "tel": "35881220",
      "num_school": 29,
      "num_teacher": 0,
      "num_student": 1438,
      "num_person": 0,
      "website": "www.spmay.go.th",
      "latitude": 14.3525602,
      "longtitude": 100.5477953
    },
    {
      "code": 1015010000,
      "area_type_id": 1,
      "name": "อ่างทอง",
      "region_id": 1,
      "inspection_id": 2,
      "address": "ถนนเทศบาล 4",
      "district_id": 86,
      "province_id": 6,
      "zip_code": 14000,
      "tel": "35611371",
      "num_school": 142,
      "num_teacher": 0,
      "num_student": 1057,
      "num_person": 0,
      "website": "www.atg.go.th",
      "latitude": 14.5895427,
      "longtitude": 100.3125776
    },
    {
      "code": 1016010000,
      "area_type_id": 1,
      "name": "ลพบุรี เขต 1",
      "region_id": 1,
      "inspection_id": 2,
      "address": "111 ถนนพระปิยะ",
      "district_id": 93,
      "province_id": 7,
      "zip_code": 15000,
      "tel": "36411730",
      "num_school": 145,
      "num_teacher": 0,
      "num_student": 1775,
      "num_person": 0,
      "website": "www.lopburi1.go.th",
      "latitude": 14.7828416,
      "longtitude": 100.6439924
    },
    {
      "code": 1016020000,
      "area_type_id": 1,
      "name": "ลพบุรี เขต 2",
      "region_id": 1,
      "inspection_id": 2,
      "address": "8/1 หมู่ 1",
      "district_id": 96,
      "province_id": 7,
      "zip_code": 15130,
      "tel": "36771496",
      "num_school": 136,
      "num_teacher": 0,
      "num_student": 1234,
      "num_person": 0,
      "website": "www.lopburi2.go.th",
      "latitude": 14.9941614,
      "longtitude": 100.5676498
    },
    {
      "code": 1017010000,
      "area_type_id": 1,
      "name": "สิงห์บุรี",
      "region_id": 1,
      "inspection_id": 2,
      "address": "ถนนสิงห์บุรี-อ่างทอง",
      "district_id": 63,
      "province_id": 4,
      "zip_code": 16000,
      "tel": "36511417",
      "num_school": 97,
      "num_teacher": 0,
      "num_student": 835,
      "num_person": 0,
      "website": "www.singprimary.go.th",
      "latitude": 14.880507,
      "longtitude": 0.4031397
    },
    {
      "code": 1016110000,
      "area_type_id": 2,
      "name": "ลพบุรี",
      "region_id": 1,
      "inspection_id": 2,
      "address": "ภายในโรงเรียนพิบูลวิทยาลัย ถนนนารายณ์มหาราช",
      "district_id": 93,
      "province_id": 7,
      "zip_code": 15000,
      "tel": "36689766",
      "num_school": 25,
      "num_teacher": 0,
      "num_student": 1160,
      "num_person": 0,
      "website": "www.sesalop.go.th",
      "latitude": 14.8747681,
      "longtitude": 100.5645316
    },
    {
      "code": 1017110000,
      "area_type_id": 2,
      "name": "สิงห์บุรี-อ่างทอง",
      "region_id": 1,
      "inspection_id": 2,
      "address": "ตั้งอยู่ในโรงเรียนสิงห์บุรี ที่อยู่ 118",
      "district_id": 104,
      "province_id": 8,
      "zip_code": 16000,
      "tel": "036510648-49",
      "num_school": 26,
      "num_teacher": 0,
      "num_student": 1050,
      "num_person": 0,
      "website": "www.sesasingthong.go.th",
      "latitude": 14.8938368,
      "longtitude": 100.4136138
    },
    {
      "code": 1018010000,
      "area_type_id": 1,
      "name": "ชัยนาท",
      "region_id": 1,
      "inspection_id": 2,
      "address": "1 ถนนวิเชียรปราการ",
      "district_id": 110,
      "province_id": 9,
      "zip_code": 17000,
      "tel": "56411639",
      "num_school": 167,
      "num_teacher": 0,
      "num_student": 1202,
      "num_person": 0,
      "website": "www.cnt.go.th",
      "latitude": 15.1849408,
      "longtitude": 100.1185534
    },
    {
      "code": 1019010000,
      "area_type_id": 1,
      "name": "สระบุรี เขต 1",
      "region_id": 1,
      "inspection_id": 2,
      "address": "437/3 ถนนมิตรภาพ",
      "district_id": 118,
      "province_id": 10,
      "zip_code": 18000,
      "tel": "36351804",
      "num_school": 119,
      "num_teacher": 0,
      "num_student": 1223,
      "num_person": 0,
      "website": "www.srb1.go.th",
      "latitude": 14.5297158,
      "longtitude": 100.9376943
    },
    {
      "code": 1019020000,
      "area_type_id": 1,
      "name": "สระบุรี เขต 2",
      "region_id": 1,
      "inspection_id": 2,
      "address": "313 หมู่ 11",
      "district_id": 119,
      "province_id": 10,
      "zip_code": 18110,
      "tel": "036358612-16",
      "num_school": 135,
      "num_teacher": 0,
      "num_student": 1148,
      "num_person": 0,
      "website": "www.saraburi2.org",
      "latitude": 14.5763908,
      "longtitude": 101.0130651
    },
    {
      "code": 1019110000,
      "area_type_id": 2,
      "name": "สระบุรี",
      "region_id": 1,
      "inspection_id": 2,
      "address": "ศูนย์ราชการจังหวัดสระบุรี ชั้น 2",
      "district_id": 118,
      "province_id": 10,
      "zip_code": 18000,
      "tel": "36340783",
      "num_school": 21,
      "num_teacher": 0,
      "num_student": 1217,
      "num_person": 0,
      "website": "sssb.go.th",
      "latitude": 14.5368797,
      "longtitude": 100.9344851
    },
    {
      "code": 1020010000,
      "area_type_id": 1,
      "name": "ชลบุรี เขต 1",
      "region_id": 4,
      "inspection_id": 8,
      "address": "162/6 หมู่ 2 ถนนพระยาสัจจา",
      "district_id": 131,
      "province_id": 11,
      "zip_code": 20000,
      "tel": "38274120",
      "num_school": 82,
      "num_teacher": 0,
      "num_student": 1505,
      "num_person": 0,
      "website": "www.chon1.go.th",
      "latitude": 13.3517042,
      "longtitude": 100.9765912
    },
    {
      "code": 1020020000,
      "area_type_id": 1,
      "name": "ชลบุรี เขต 2",
      "region_id": 4,
      "inspection_id": 8,
      "address": "หมู่ที่ 7",
      "district_id": 136,
      "province_id": 11,
      "zip_code": null,
      "tel": "38474630",
      "num_school": 112,
      "num_teacher": 0,
      "num_student": 1968,
      "num_person": 0,
      "website": "www.chon2.go.th",
      "latitude": 13.4296488,
      "longtitude": 101.1991274
    },
    {
      "code": 1020030000,
      "area_type_id": 1,
      "name": "ชลบุรี เขต 3",
      "region_id": 4,
      "inspection_id": 8,
      "address": "14/42 หมู่ 4",
      "district_id": 134,
      "province_id": 11,
      "zip_code": 20150,
      "tel": "38234218",
      "num_school": 81,
      "num_teacher": 0,
      "num_student": 1904,
      "num_person": 0,
      "website": "www.chon3.go.th",
      "latitude": 13.0420421,
      "longtitude": 100.9255086
    },
    {
      "code": 1020110000,
      "area_type_id": 2,
      "name": "ชลบุรี-ระยอง",
      "region_id": 4,
      "inspection_id": 8,
      "address": "25/11 หมู่ 5",
      "district_id": 131,
      "province_id": 11,
      "zip_code": 20000,
      "tel": "038397501-5",
      "num_school": 51,
      "num_teacher": 0,
      "num_student": 3941,
      "num_person": 0,
      "website": "www.spm18.go.th",
      "latitude": 13.3325238,
      "longtitude": 100.9225971
    },
    {
      "code": 1021010000,
      "area_type_id": 1,
      "name": "ระยอง เขต 1",
      "region_id": 4,
      "inspection_id": 8,
      "address": "1/24 ถนนบางจาก",
      "district_id": 142,
      "province_id": 12,
      "zip_code": 21000,
      "tel": "38611231",
      "num_school": 113,
      "num_teacher": 0,
      "num_student": 2230,
      "num_person": 0,
      "website": "www.rayong1.go.th",
      "latitude": 12.6695119,
      "longtitude": 101.2728293
    },
    {
      "code": 1021020000,
      "area_type_id": 1,
      "name": "ระยอง เขต 2",
      "region_id": 4,
      "inspection_id": 8,
      "address": "99/1 หมู่ 3 ถนนสุขุมวิท",
      "district_id": 144,
      "province_id": 12,
      "zip_code": 21110,
      "tel": "38671180",
      "num_school": 86,
      "num_teacher": 0,
      "num_student": 947,
      "num_person": 0,
      "website": "www.rayong2.go.th",
      "latitude": 12.7686025,
      "longtitude": 101.6323608
    },
    {
      "code": 1022010000,
      "area_type_id": 1,
      "name": "จันทบุรี เขต 1",
      "region_id": 4,
      "inspection_id": 9,
      "address": "1 ถนนตากสิน",
      "district_id": 150,
      "province_id": 13,
      "zip_code": 22000,
      "tel": "39321088",
      "num_school": 79,
      "num_teacher": 0,
      "num_student": 1050,
      "num_person": 0,
      "website": "www.chan1.go.th",
      "latitude": 12.5976791,
      "longtitude": 102.0956954
    },
    {
      "code": 1022020000,
      "area_type_id": 1,
      "name": "จันทบุรี เขต 2",
      "region_id": 4,
      "inspection_id": 9,
      "address": "1051/3 ถนนท่าแฉลบ",
      "district_id": 150,
      "province_id": 13,
      "zip_code": 22000,
      "tel": "39311117",
      "num_school": 106,
      "num_teacher": 0,
      "num_student": 1477,
      "num_person": 0,
      "website": "www.chan2.go.th",
      "latitude": 12.5945153,
      "longtitude": 102.0946057
    },
    {
      "code": 1022110000,
      "area_type_id": 2,
      "name": "จันทบุรี-ตราด",
      "region_id": 4,
      "inspection_id": 9,
      "address": "9 ถนนศรียานุสรณ์",
      "district_id": 150,
      "province_id": 13,
      "zip_code": 22000,
      "tel": "039314402-3",
      "num_school": 39,
      "num_teacher": 0,
      "num_student": 1685,
      "num_person": 0,
      "website": "www.sesact.go.th",
      "latitude": 12.6137355,
      "longtitude": 102.110519
    },
    {
      "code": 1023010000,
      "area_type_id": 1,
      "name": "ตราด",
      "region_id": 4,
      "inspection_id": 9,
      "address": "356 หมู่ 2 ถนนสุขุมวิท",
      "district_id": 160,
      "province_id": 14,
      "zip_code": 23000,
      "tel": "39522816",
      "num_school": 105,
      "num_teacher": 0,
      "num_student": 1074,
      "num_person": 0,
      "website": "www.trat-edu.go.th",
      "latitude": 12.2675132,
      "longtitude": 102.4982036
    },
    {
      "code": 1024010000,
      "area_type_id": 1,
      "name": "ฉะเชิงเทรา เขต 1",
      "region_id": 4,
      "inspection_id": 8,
      "address": "หมู่ที่ 1 ถนนเลี่ยงเมือง",
      "district_id": 167,
      "province_id": 15,
      "zip_code": 24000,
      "tel": "33599461",
      "num_school": 138,
      "num_teacher": 0,
      "num_student": 1755,
      "num_person": 0,
      "website": "www.ccs1.go.th",
      "latitude": 13.6585646,
      "longtitude": 101.0788993
    },
    {
      "code": 1024020000,
      "area_type_id": 1,
      "name": "ฉะเชิงเทรา เขต 2",
      "region_id": 4,
      "inspection_id": 8,
      "address": "209/1 หมู่ที่ 3",
      "district_id": 172,
      "province_id": 15,
      "zip_code": 24120,
      "tel": "38553174",
      "num_school": 145,
      "num_teacher": 0,
      "num_student": 1602,
      "num_person": 0,
      "website": "www.ccs2.go.th",
      "latitude": 13.7115179,
      "longtitude": 101.3851205
    },
    {
      "code": 1024110000,
      "area_type_id": 2,
      "name": "ฉะเชิงเทรา",
      "region_id": 4,
      "inspection_id": 8,
      "address": "410/1 ถนนมรุพงษ์",
      "district_id": 167,
      "province_id": 15,
      "zip_code": 24000,
      "tel": "38517280",
      "num_school": 29,
      "num_teacher": 0,
      "num_student": 1273,
      "num_person": 0,
      "website": "www.ccs.go.th",
      "latitude": 13.6798809,
      "longtitude": 101.0715397
    },
    {
      "code": 1025010000,
      "area_type_id": 1,
      "name": "ปราจีนบุรี เขต 1",
      "region_id": 4,
      "inspection_id": 9,
      "address": "814 ถนนปราจีนอนุสรณ์",
      "district_id": 178,
      "province_id": 16,
      "zip_code": 25000,
      "tel": "37211362",
      "num_school": 119,
      "num_teacher": 0,
      "num_student": 1366,
      "num_person": 0,
      "website": "www.pri1.go.th",
      "latitude": 14.0478926,
      "longtitude": 101.3712889
    },
    {
      "code": 1025020000,
      "area_type_id": 1,
      "name": "ปราจีนบุรี เขต 2",
      "region_id": 4,
      "inspection_id": 9,
      "address": "998 หมู่ที่ 2 ถนนฉะเชิงเทรา - นครราชสีมา",
      "district_id": 179,
      "province_id": 16,
      "zip_code": 25110,
      "tel": "37280286",
      "num_school": 113,
      "num_teacher": 0,
      "num_student": 1055,
      "num_person": 0,
      "website": "www.prachinburi2.go.th",
      "latitude": 13.9451824,
      "longtitude": 101.7113959
    },
    {
      "code": 1025110000,
      "area_type_id": 2,
      "name": "ปราจีนบุรี-นครนายก",
      "region_id": 4,
      "inspection_id": 9,
      "address": "60 หมู่ 14 ถนนสุวรรณศร",
      "district_id": 178,
      "province_id": 16,
      "zip_code": 25230,
      "tel": "37210543",
      "num_school": 30,
      "num_teacher": 0,
      "num_student": 1951,
      "num_person": 0,
      "website": "www.spm-pn.go.th",
      "latitude": 14.1375972,
      "longtitude": 101.3979405
    },
    {
      "code": 1026010000,
      "area_type_id": 1,
      "name": "นครนายก",
      "region_id": 4,
      "inspection_id": 9,
      "address": "182/89 ถนนสุวรรณศร",
      "district_id": 185,
      "province_id": 17,
      "zip_code": 26000,
      "tel": "37313628",
      "num_school": 131,
      "num_teacher": 0,
      "num_student": 1093,
      "num_person": 0,
      "website": "www.edunayok.eduweb.in.th",
      "latitude": 14.211053,
      "longtitude": 1.1923268
    },
    {
      "code": 1027010000,
      "area_type_id": 1,
      "name": "สระแก้ว เขต 1",
      "region_id": 4,
      "inspection_id": 9,
      "address": "หมู่ 3 บ้านหนองนกเขา",
      "district_id": 189,
      "province_id": 18,
      "zip_code": 27000,
      "tel": "37425468",
      "num_school": 145,
      "num_teacher": 0,
      "num_student": 1495,
      "num_person": 0,
      "website": "www.sk1edu.go.th",
      "latitude": 13.802188,
      "longtitude": 2.1218498
    },
    {
      "code": 1027020000,
      "area_type_id": 1,
      "name": "สระแก้ว เขต 2",
      "region_id": 4,
      "inspection_id": 9,
      "address": "ถนนสุุวรรณศร",
      "district_id": 194,
      "province_id": 18,
      "zip_code": 27120,
      "tel": "37232263",
      "num_school": 118,
      "num_teacher": 0,
      "num_student": 1556,
      "num_person": 0,
      "website": "www.skarea2.go.th",
      "latitude": 13.6907697,
      "longtitude": 102.5011512
    },
    {
      "code": 1027110000,
      "area_type_id": 2,
      "name": "สระแก้ว",
      "region_id": 4,
      "inspection_id": 9,
      "address": "1991 หมู่ 2 ถนนสุวรรณศร",
      "district_id": 189,
      "province_id": 18,
      "zip_code": 27000,
      "tel": "37247904",
      "num_school": 14,
      "num_teacher": 0,
      "num_student": 937,
      "num_person": 0,
      "website": "spm-sk.go.th",
      "latitude": 13.778352,
      "longtitude": 102.171638
    },
    {
      "code": 1030010000,
      "area_type_id": 1,
      "name": "นครราชสีมา เขต 1",
      "region_id": 5,
      "inspection_id": 13,
      "address": "636 หมู่ 5 ถนนเพชรมาตุคลา",
      "district_id": 198,
      "province_id": 19,
      "zip_code": 30000,
      "tel": "44220943",
      "num_school": 143,
      "num_teacher": 0,
      "num_student": 2078,
      "num_person": 0,
      "website": "www.koratdu.info",
      "latitude": 14.9726275,
      "longtitude": 102.1500881
    },
    {
      "code": 1030020000,
      "area_type_id": 1,
      "name": "นครราชสีมา เขต 2",
      "region_id": 5,
      "inspection_id": 13,
      "address": "72 หมู่ 4",
      "district_id": 203,
      "province_id": 19,
      "zip_code": 30230,
      "tel": "44399055",
      "num_school": 175,
      "num_teacher": 0,
      "num_student": 2130,
      "num_person": 0,
      "website": "www.korat2.go.th",
      "latitude": 15.0149405,
      "longtitude": 102.4104652
    },
    {
      "code": 1030030000,
      "area_type_id": 1,
      "name": "นครราชสีมา เขต 3",
      "region_id": 5,
      "inspection_id": 13,
      "address": "ถนนสุขาภิบาล 14",
      "district_id": 199,
      "province_id": 19,
      "zip_code": 30250,
      "tel": "44444161",
      "num_school": 183,
      "num_teacher": 0,
      "num_student": 1819,
      "num_person": 0,
      "website": "www.korat3.go.th",
      "latitude": 14.5234491,
      "longtitude": 102.2495246
    },
    {
      "code": 1030040000,
      "area_type_id": 1,
      "name": "นครราชสีมา เขต 4",
      "region_id": 5,
      "inspection_id": 13,
      "address": "345 หมู่ 5 ถนนมิตรภาพ",
      "district_id": 217,
      "province_id": 19,
      "zip_code": 30340,
      "tel": "44416991",
      "num_school": 180,
      "num_teacher": 0,
      "num_student": 1770,
      "num_person": 0,
      "website": "www.korat4.go.th",
      "latitude": 14.8574425,
      "longtitude": 101.6729352
    },
    {
      "code": 1030050000,
      "area_type_id": 1,
      "name": "นครราชสีมา เขต 5",
      "region_id": 5,
      "inspection_id": 13,
      "address": "118 หมู่ 12",
      "district_id": 205,
      "province_id": 19,
      "zip_code": 30210,
      "tel": "44208147",
      "num_school": 213,
      "num_teacher": 0,
      "num_student": 1937,
      "num_person": 0,
      "website": "www.korat5.go.th",
      "latitude": 15.2063925,
      "longtitude": 101.7759223
    },
    {
      "code": 1030060000,
      "area_type_id": 1,
      "name": "นครราชสีมา เขต 6",
      "region_id": 5,
      "inspection_id": 13,
      "address": "666 หมู่ 5 ถนนทางหลวง 202 (นิเวศน์รัตน์)",
      "district_id": 209,
      "province_id": 19,
      "zip_code": 30120,
      "tel": "44461672",
      "num_school": 180,
      "num_teacher": 0,
      "num_student": 1362,
      "num_person": 0,
      "website": "nma6.obec.go.th/korat6",
      "latitude": 15.584224,
      "longtitude": 2.4230141
    },
    {
      "code": 1030070000,
      "area_type_id": 1,
      "name": "นครราชสีมา เขต 7",
      "region_id": 5,
      "inspection_id": 13,
      "address": "227 หมู่ 21 ถนนพิมาย - ชุมพวง",
      "district_id": 214,
      "province_id": 19,
      "zip_code": 30270,
      "tel": "44300174",
      "num_school": 225,
      "num_teacher": 0,
      "num_student": 2090,
      "num_person": 0,
      "website": "www.korat7.go.th",
      "latitude": 15.3199145,
      "longtitude": 102.7254048
    },
    {
      "code": 1030110000,
      "area_type_id": 2,
      "name": "นครราชสีมา",
      "region_id": 5,
      "inspection_id": 13,
      "address": "505 หมู่ 12 ถนนโคกกรวด-หนองปลิง ต.โคกกรวด",
      "district_id": 198,
      "province_id": 19,
      "zip_code": 30280,
      "tel": "044395223-6",
      "num_school": 50,
      "num_teacher": 0,
      "num_student": 3331,
      "num_person": 0,
      "website": "www.mattayom31.go.th",
      "latitude": 14.9088664,
      "longtitude": 101.9790107
    },
    {
      "code": 1031010000,
      "area_type_id": 1,
      "name": "บุรีรัมย์ เขต 1",
      "region_id": 5,
      "inspection_id": 13,
      "address": "50 ถนนอิสาณ",
      "district_id": 230,
      "province_id": 20,
      "zip_code": 31000,
      "tel": "44611013",
      "num_school": 201,
      "num_teacher": 0,
      "num_student": 2618,
      "num_person": 0,
      "website": "www.brm1.go.th",
      "latitude": 14.9974473,
      "longtitude": 103.114389
    },
    {
      "code": 1031020000,
      "area_type_id": 1,
      "name": "บุรีรัมย์ เขต 2",
      "region_id": 5,
      "inspection_id": 13,
      "address": "451 หมู่ 2 ถนนอำนวยกิจ",
      "district_id": 236,
      "province_id": 20,
      "zip_code": 31140,
      "tel": "44671094",
      "num_school": 229,
      "num_teacher": 0,
      "num_student": 2644,
      "num_person": 0,
      "website": "www.br2.go.th",
      "latitude": 14.6135651,
      "longtitude": 103.0790163
    },
    {
      "code": 1031030000,
      "area_type_id": 1,
      "name": "บุรีรัมย์ เขต 3",
      "region_id": 5,
      "inspection_id": 13,
      "address": "77 หมู่ 4",
      "district_id": 233,
      "province_id": 20,
      "zip_code": 31110,
      "tel": "44634541",
      "num_school": 214,
      "num_teacher": 0,
      "num_student": 3040,
      "num_person": 0,
      "website": "site.google.com/a/bm3.go.th/buriram3/home/",
      "latitude": 14.6313199,
      "longtitude": 102.7646484
    },
    {
      "code": 1031040000,
      "area_type_id": 1,
      "name": "บุรีรัมย์ เขต 4",
      "region_id": 5,
      "inspection_id": 13,
      "address": "หมู่ 3",
      "district_id": 238,
      "province_id": 20,
      "zip_code": 31120,
      "tel": "44689445",
      "num_school": 191,
      "num_teacher": 0,
      "num_student": 1807,
      "num_person": 0,
      "website": "www.brm4.go.th",
      "latitude": 15.5479728,
      "longtitude": 102.9905739
    },
    {
      "code": 1031110000,
      "area_type_id": 2,
      "name": "บุรีรัมย์",
      "region_id": 5,
      "inspection_id": 13,
      "address": "15 ถนนนิวาศ",
      "district_id": 230,
      "province_id": 20,
      "zip_code": 31000,
      "tel": "44612408",
      "num_school": 66,
      "num_teacher": 0,
      "num_student": 3229,
      "num_person": 0,
      "website": "www.ssbr.go.th",
      "latitude": 15.0033431,
      "longtitude": 103.1051023
    },
    {
      "code": 1032010000,
      "area_type_id": 1,
      "name": "สุรินทร์ เขต 1",
      "region_id": 5,
      "inspection_id": 13,
      "address": "348 หมู่ที่ 20 ถนนสุรินทร์-ปราสาท",
      "district_id": 253,
      "province_id": 21,
      "zip_code": 32000,
      "tel": "44518883",
      "num_school": 291,
      "num_teacher": 0,
      "num_student": 2759,
      "num_person": 0,
      "website": "www.surinarea1.go.th",
      "latitude": 14.8682321,
      "longtitude": 103.4832562
    },
    {
      "code": 1032020000,
      "area_type_id": 1,
      "name": "สุรินทร์ เขต 2",
      "region_id": 5,
      "inspection_id": 13,
      "address": "219 หมู่ 1 ถนนศรีรัตน์",
      "district_id": 259,
      "province_id": 21,
      "zip_code": 32130,
      "tel": "44599270",
      "num_school": 218,
      "num_teacher": 0,
      "num_student": 1805,
      "num_person": 0,
      "website": "www.srn2.go.th",
      "latitude": 15.3160757,
      "longtitude": 103.8521937
    },
    {
      "code": 1032030000,
      "area_type_id": 1,
      "name": "สุรินทร์ เขต 3",
      "region_id": 5,
      "inspection_id": 13,
      "address": "ถนนโชคชัย-เดชอุดม",
      "district_id": 257,
      "province_id": 21,
      "zip_code": 32140,
      "tel": "44551374",
      "num_school": 233,
      "num_teacher": 0,
      "num_student": 3266,
      "num_person": 0,
      "website": "www.surin3.go.th",
      "latitude": 14.6313996,
      "longtitude": 103.4067354
    },
    {
      "code": 1032110000,
      "area_type_id": 2,
      "name": "สุรินทร์",
      "region_id": 5,
      "inspection_id": 13,
      "address": "197 หมู่ 20",
      "district_id": 253,
      "province_id": 21,
      "zip_code": 32000,
      "tel": "44069660",
      "num_school": 85,
      "num_teacher": 0,
      "num_student": 2845,
      "num_person": 0,
      "website": "www.secondary33.go.th",
      "latitude": 14.87415,
      "longtitude": 3.4879156
    },
    {
      "code": 1033010000,
      "area_type_id": 1,
      "name": "ศรีสะเกษ เขต 1",
      "region_id": 5,
      "inspection_id": 14,
      "address": "360 หมู่ 5 ถนนรัตนวงษา",
      "district_id": 270,
      "province_id": 22,
      "zip_code": 33000,
      "tel": "45611818",
      "num_school": 258,
      "num_teacher": 0,
      "num_student": 2180,
      "num_person": 0,
      "website": "www.sisaketedu1.go.th",
      "latitude": 15.1086675,
      "longtitude": 104.3264447
    },
    {
      "code": 1033020000,
      "area_type_id": 1,
      "name": "ศรีสะเกษ เขต 2",
      "region_id": 5,
      "inspection_id": 14,
      "address": "ถนนศรีอุทุมพร",
      "district_id": 279,
      "province_id": 22,
      "zip_code": 33120,
      "tel": "45691533",
      "num_school": 179,
      "num_teacher": 0,
      "num_student": 1821,
      "num_person": 0,
      "website": "www2.osea2.go.th",
      "latitude": 15.1119909,
      "longtitude": 104.1468693
    },
    {
      "code": 1033030000,
      "area_type_id": 1,
      "name": "ศรีสะเกษ เขต 3",
      "region_id": 5,
      "inspection_id": 14,
      "address": "69 หมู่ 8",
      "district_id": 274,
      "province_id": 22,
      "zip_code": 33140,
      "tel": "45671259",
      "num_school": 198,
      "num_teacher": 0,
      "num_student": 2139,
      "num_person": 0,
      "website": "www.ssk3.go.th",
      "latitude": 14.6930641,
      "longtitude": 104.2012958
    },
    {
      "code": 1033040000,
      "area_type_id": 1,
      "name": "ศรีสะเกษ เขต 4",
      "region_id": 5,
      "inspection_id": 14,
      "address": "หมู่ที่ 3",
      "district_id": 273,
      "province_id": 22,
      "zip_code": 33110,
      "tel": "45810561",
      "num_school": 210,
      "num_teacher": 0,
      "num_student": 2311,
      "num_person": 0,
      "website": "www.ssk4.go.th/home",
      "latitude": 14.6713164,
      "longtitude": 104.5957946
    },
    {
      "code": 1033110000,
      "area_type_id": 2,
      "name": "ศรีสะเกษ-ยโสธร",
      "region_id": 5,
      "inspection_id": 14,
      "address": "917/20 ถนนวันลูกเสือ",
      "district_id": 270,
      "province_id": 22,
      "zip_code": 33000,
      "tel": "45613372",
      "num_school": 83,
      "num_teacher": 0,
      "num_student": 4225,
      "num_person": 0,
      "website": "www.secondary28.go.th",
      "latitude": 15.1126952,
      "longtitude": 104.3253383
    },
    {
      "code": 1034010000,
      "area_type_id": 1,
      "name": "อุบลราชธานี เขต 1",
      "region_id": 5,
      "inspection_id": 14,
      "address": "199 ถนนสุรศักดิ์",
      "district_id": 292,
      "province_id": 23,
      "zip_code": 34000,
      "tel": "864652532",
      "num_school": 237,
      "num_teacher": 0,
      "num_student": 1939,
      "num_person": 0,
      "website": "www.ubn1.go.th",
      "latitude": 15.2296392,
      "longtitude": 104.8539855
    },
    {
      "code": 1034020000,
      "area_type_id": 1,
      "name": "อุบลราชธานี เขต 2",
      "region_id": 5,
      "inspection_id": 14,
      "address": "201 หมู่ 5 ถนนตระการ-พนา",
      "district_id": 301,
      "province_id": 23,
      "zip_code": 34130,
      "tel": "45482410",
      "num_school": 214,
      "num_teacher": 0,
      "num_student": 1783,
      "num_person": 0,
      "website": "www.ubon2-ed.go.th",
      "latitude": 15.6152288,
      "longtitude": 105.0169134
    },
    {
      "code": 1034030000,
      "area_type_id": 1,
      "name": "อุบลราชธานี เขต 3",
      "region_id": 5,
      "inspection_id": 14,
      "address": "ถนนสถิตย์นิมานกาล",
      "district_id": 305,
      "province_id": 23,
      "zip_code": 34110,
      "tel": "45429249",
      "num_school": 209,
      "num_teacher": 0,
      "num_student": 2000,
      "num_person": 0,
      "website": "www.ubon3.go.th",
      "latitude": 15.2278234,
      "longtitude": 105.1803828
    },
    {
      "code": 1034040000,
      "area_type_id": 1,
      "name": "อุบลราชธานี เขต 4",
      "region_id": 5,
      "inspection_id": 14,
      "address": "ถนนคำน้ำแซบ",
      "district_id": 304,
      "province_id": 23,
      "zip_code": 34190,
      "tel": "45321144",
      "num_school": 143,
      "num_teacher": 0,
      "num_student": 1491,
      "num_person": 0,
      "website": "www.ubn4.go.th",
      "latitude": 15.2001788,
      "longtitude": 104.8652061
    },
    {
      "code": 1034050000,
      "area_type_id": 1,
      "name": "อุบลราชธานี เขต 5",
      "region_id": 5,
      "inspection_id": 14,
      "address": "ถนนสถิลมาร์ค",
      "district_id": 297,
      "province_id": 23,
      "zip_code": 34160,
      "tel": "0864681931-36",
      "num_school": 252,
      "num_teacher": 0,
      "num_student": 1333,
      "num_person": 0,
      "website": "web.ubon5.go.th",
      "latitude": 14.9415829,
      "longtitude": 105.0333744
    },
    {
      "code": 1034110000,
      "area_type_id": 2,
      "name": "อุบลราชธานี-อำนาจเจริญ",
      "region_id": 5,
      "inspection_id": 14,
      "address": "298 หมู่ 9 ถนนเลี่ยงเมือง",
      "district_id": 292,
      "province_id": 23,
      "zip_code": 34000,
      "tel": "45422186",
      "num_school": 81,
      "num_teacher": 0,
      "num_student": 4726,
      "num_person": 0,
      "website": "www.secondary29.go.th",
      "latitude": 15.2663954,
      "longtitude": 104.9257041
    },
    {
      "code": 1035010000,
      "area_type_id": 1,
      "name": "ยโสธร เขต 1",
      "region_id": 5,
      "inspection_id": 14,
      "address": "166 หมู่ 1 ถนนแจ้งสนิท",
      "district_id": 317,
      "province_id": 24,
      "zip_code": 35000,
      "tel": "45711419",
      "num_school": 187,
      "num_teacher": 0,
      "num_student": 1333,
      "num_person": 0,
      "website": "www.yst1.go.th",
      "latitude": 15.8166757,
      "longtitude": 104.1281361
    },
    {
      "code": 1035020000,
      "area_type_id": 1,
      "name": "ยโสธร เขต 2",
      "region_id": 5,
      "inspection_id": 14,
      "address": "382 หมู่ 2 ถนนวารีราชเดช",
      "district_id": 319,
      "province_id": 24,
      "zip_code": 35140,
      "tel": "45789477",
      "num_school": 182,
      "num_teacher": 0,
      "num_student": 1334,
      "num_person": 0,
      "website": "www.yst2.go.th",
      "latitude": 16.0333404,
      "longtitude": 104.3379287
    },
    {
      "code": 1036010000,
      "area_type_id": 1,
      "name": "ชัยภูมิ เขต 1",
      "region_id": 5,
      "inspection_id": 13,
      "address": "",
      "district_id": 326,
      "province_id": 25,
      "zip_code": 36000,
      "tel": "44821500",
      "num_school": 223,
      "num_teacher": 0,
      "num_student": 1558,
      "num_person": 0,
      "website": "",
      "latitude": 15.8096944,
      "longtitude": 102.0254441
    },
    {
      "code": 1036020000,
      "area_type_id": 1,
      "name": "ชัยภูมิ เขต 2",
      "region_id": 5,
      "inspection_id": 13,
      "address": "333 หมู่ 4",
      "district_id": 335,
      "province_id": 25,
      "zip_code": 36110,
      "tel": "44861930",
      "num_school": 262,
      "num_teacher": 0,
      "num_student": 2095,
      "num_person": 0,
      "website": "www.chaiyaphum2.go.th",
      "latitude": 16.3751077,
      "longtitude": 102.1227885
    },
    {
      "code": 1036030000,
      "area_type_id": 1,
      "name": "ชัยภูมิ เขต 3",
      "region_id": 5,
      "inspection_id": 13,
      "address": "หมู่ที่ 1 ถนนชัยภูมิ-สี่คิ้ว",
      "district_id": 331,
      "province_id": 25,
      "zip_code": 36130,
      "tel": "44056385",
      "num_school": 190,
      "num_teacher": 0,
      "num_student": 1681,
      "num_person": 0,
      "website": "www.chaiyaphum3.go.th",
      "latitude": 15.5734199,
      "longtitude": 101.8586544
    },
    {
      "code": 1036110000,
      "area_type_id": 2,
      "name": "ชัยภูมิ",
      "region_id": 5,
      "inspection_id": 13,
      "address": "393/2 หมู่ที่ 9 ชุมชนขี้เหล็กใหญ่",
      "district_id": 326,
      "province_id": 25,
      "zip_code": 36000,
      "tel": "044056766-7",
      "num_school": 37,
      "num_teacher": 0,
      "num_student": 1749,
      "num_person": 0,
      "website": "www.sesao30.go.th",
      "latitude": 15.7913205,
      "longtitude": 102.0122128
    },
    {
      "code": 1037010000,
      "area_type_id": 1,
      "name": "อำนาจเจริญ",
      "region_id": 5,
      "inspection_id": 14,
      "address": "230 ถนนสุขาภิบาล 1 หมู่ 7 บ้านแสนสวาสดิ์",
      "district_id": 342,
      "province_id": 26,
      "zip_code": 37000,
      "tel": "45511019",
      "num_school": 252,
      "num_teacher": 0,
      "num_student": 1775,
      "num_person": 0,
      "website": "www.amnat-ed.go.th",
      "latitude": 15.877832,
      "longtitude": 4.6214556
    },
    {
      "code": 1038010000,
      "area_type_id": 1,
      "name": "บึงกาฬ",
      "region_id": 5,
      "inspection_id": 10,
      "address": "511 หมู่ที่ 7",
      "district_id": 349,
      "province_id": 27,
      "zip_code": 38000,
      "tel": "42491247",
      "num_school": 210,
      "num_teacher": 0,
      "num_student": 2988,
      "num_person": 0,
      "website": "www.ictbk.net/smart/",
      "latitude": 18.373374,
      "longtitude": 3.6378867
    },
    {
      "code": 1038110000,
      "area_type_id": 2,
      "name": "บึงกาฬ",
      "region_id": 5,
      "inspection_id": 10,
      "address": "211 หมู่ 1",
      "district_id": 349,
      "province_id": 27,
      "zip_code": 38000,
      "tel": "943986661",
      "num_school": 25,
      "num_teacher": 0,
      "num_student": 1083,
      "num_person": 0,
      "website": "www.sesaobk.go.th",
      "latitude": 18.3634335,
      "longtitude": 103.6504829
    },
    {
      "code": 1039010000,
      "area_type_id": 1,
      "name": "หนองบัวลำภู เขต 1",
      "region_id": 5,
      "inspection_id": 10,
      "address": "113/4 หมู่ 2 ถนนหนองบัวลำภู-เลย",
      "district_id": 357,
      "province_id": 28,
      "zip_code": 39000,
      "tel": "42312659",
      "num_school": 201,
      "num_teacher": 0,
      "num_student": 1594,
      "num_person": 0,
      "website": "www.nb1.go.th",
      "latitude": 17.2173075,
      "longtitude": 102.4270739
    },
    {
      "code": 1039020000,
      "area_type_id": 1,
      "name": "หนองบัวลำภู เขต 2",
      "region_id": 5,
      "inspection_id": 10,
      "address": "ถนนอุดร-เลย",
      "district_id": 358,
      "province_id": 28,
      "zip_code": 39170,
      "tel": "042359564-7",
      "num_school": 102,
      "num_teacher": 0,
      "num_student": 1049,
      "num_person": 0,
      "website": "www.nb2.go.th",
      "latitude": 17.3093616,
      "longtitude": 102.1860468
    },
    {
      "code": 1040010000,
      "area_type_id": 1,
      "name": "ขอนแก่น เขต 1",
      "region_id": 5,
      "inspection_id": 12,
      "address": "264 หมู่ที่ 132 ถนนศูนย์ราชการ",
      "district_id": 363,
      "province_id": 29,
      "zip_code": 40000,
      "tel": "43246663",
      "num_school": 152,
      "num_teacher": 0,
      "num_student": 1424,
      "num_person": 0,
      "website": "www.kkzon1.go.th",
      "latitude": 16.4432927,
      "longtitude": 102.833877
    },
    {
      "code": 1040020000,
      "area_type_id": 1,
      "name": "ขอนแก่น เขต 2",
      "region_id": 5,
      "inspection_id": 12,
      "address": "11 หมู่ที่ 22 ถนนมิตรภาพ",
      "district_id": 372,
      "province_id": 29,
      "zip_code": 40110,
      "tel": "43272818",
      "num_school": 208,
      "num_teacher": 0,
      "num_student": 1580,
      "num_person": 0,
      "website": "",
      "latitude": 16.0540826,
      "longtitude": 102.7114404
    },
    {
      "code": 1040030000,
      "area_type_id": 1,
      "name": "ขอนแก่น เขต 3",
      "region_id": 5,
      "inspection_id": 12,
      "address": "ถนนเมืองพล - ชัยภูมิ",
      "district_id": 374,
      "province_id": 29,
      "zip_code": 40120,
      "tel": "43415104",
      "num_school": 180,
      "num_teacher": 0,
      "num_student": 1249,
      "num_person": 0,
      "website": "www.kkn3.go.th",
      "latitude": 15.8098349,
      "longtitude": 102.5853016
    },
    {
      "code": 1040040000,
      "area_type_id": 1,
      "name": "ขอนแก่น เขต 4",
      "region_id": 5,
      "inspection_id": 12,
      "address": "86 หมู่ 5 ถนนมิตรภาพ",
      "district_id": 369,
      "province_id": 29,
      "zip_code": 40310,
      "tel": "43441808",
      "num_school": 175,
      "num_teacher": 0,
      "num_student": 1315,
      "num_person": 0,
      "website": "www.khonkaen4.go.th",
      "latitude": 16.7294372,
      "longtitude": 102.8030854
    },
    {
      "code": 1040050000,
      "area_type_id": 1,
      "name": "ขอนแก่น เขต 5",
      "region_id": 5,
      "inspection_id": 12,
      "address": "120 หมู่ 9 ถนนมลิวรรณ",
      "district_id": 367,
      "province_id": 29,
      "zip_code": 40130,
      "tel": "43312505",
      "num_school": 257,
      "num_teacher": 0,
      "num_student": 2169,
      "num_person": 0,
      "website": "www.kkn5.go.th",
      "latitude": 16.5521308,
      "longtitude": 102.0834254
    },
    {
      "code": 1040110000,
      "area_type_id": 2,
      "name": "ขอนแก่น",
      "region_id": 5,
      "inspection_id": 12,
      "address": "473 หมู่ที่ 2 ถนนมลิวรรณ",
      "district_id": 363,
      "province_id": 29,
      "zip_code": 40000,
      "tel": "43009867",
      "num_school": 84,
      "num_teacher": 0,
      "num_student": 3386,
      "num_person": 0,
      "website": "www.kksec.go.th",
      "latitude": 16.4507658,
      "longtitude": 102.7292855
    },
    {
      "code": 1041010000,
      "area_type_id": 1,
      "name": "อุดรธานี เขต 1",
      "region_id": 5,
      "inspection_id": 10,
      "address": "7/7 ถนนโพศรี",
      "district_id": 389,
      "province_id": 30,
      "zip_code": 41000,
      "tel": "42222041",
      "num_school": 219,
      "num_teacher": 0,
      "num_student": 2911,
      "num_person": 0,
      "website": "www.udn1.go.th",
      "latitude": 17.4125356,
      "longtitude": 102.7812605
    },
    {
      "code": 1041020000,
      "area_type_id": 1,
      "name": "อุดรธานี เขต 2",
      "region_id": 5,
      "inspection_id": 10,
      "address": "505 หมู่ 9",
      "district_id": 392,
      "province_id": 30,
      "zip_code": 41110,
      "tel": "42334575",
      "num_school": 193,
      "num_teacher": 0,
      "num_student": 1741,
      "num_person": 0,
      "website": "udesa2.go.th",
      "latitude": 17.1130425,
      "longtitude": 103.0156188
    },
    {
      "code": 1041030000,
      "area_type_id": 1,
      "name": "อุดรธานี เขต 3",
      "region_id": 5,
      "inspection_id": 10,
      "address": "256/1 หมู่ 11",
      "district_id": 394,
      "province_id": 30,
      "zip_code": 41130,
      "tel": "42261156",
      "num_school": 203,
      "num_teacher": 0,
      "num_student": 2602,
      "num_person": 0,
      "website": "www.udn3.org",
      "latitude": 17.3610001,
      "longtitude": 103.1081006
    },
    {
      "code": 1041040000,
      "area_type_id": 1,
      "name": "อุดรธานี เขต 4",
      "region_id": 5,
      "inspection_id": 10,
      "address": "25 หมู่ 8 ถนนชนบทบำรุง",
      "district_id": 400,
      "province_id": 30,
      "zip_code": 41160,
      "tel": "42281299",
      "num_school": 143,
      "num_teacher": 0,
      "num_student": 1420,
      "num_person": 0,
      "website": "www.udon4.go.th",
      "latitude": 17.6875672,
      "longtitude": 102.4738453
    },
    {
      "code": 1041110000,
      "area_type_id": 2,
      "name": "อุดรธานี",
      "region_id": 5,
      "inspection_id": 10,
      "address": "79 หมู่ 6",
      "district_id": 389,
      "province_id": 30,
      "zip_code": 41000,
      "tel": "42123185",
      "num_school": 63,
      "num_teacher": 0,
      "num_student": 2985,
      "num_person": 0,
      "website": "www.sesa.ud.go.th",
      "latitude": 17.3445631,
      "longtitude": 102.7813628
    },
    {
      "code": 1042010000,
      "area_type_id": 1,
      "name": "เลย เขต 1",
      "region_id": 5,
      "inspection_id": 10,
      "address": "ถนนเลย-เชียงคาน",
      "district_id": 409,
      "province_id": 31,
      "zip_code": 42000,
      "tel": "042813112-4",
      "num_school": 142,
      "num_teacher": 0,
      "num_student": 1627,
      "num_person": 0,
      "website": "www.loei1.go.th",
      "latitude": 17.5540117,
      "longtitude": 101.7273296
    },
    {
      "code": 1042020000,
      "area_type_id": 1,
      "name": "เลย เขต 2",
      "region_id": 5,
      "inspection_id": 10,
      "address": "256 หมู่ 3",
      "district_id": 409,
      "province_id": 31,
      "zip_code": 42130,
      "tel": "042810905-6",
      "num_school": 155,
      "num_teacher": 0,
      "num_student": 1674,
      "num_person": 0,
      "website": "www.loei2.go.th",
      "latitude": 17.2895091,
      "longtitude": 101.7751262
    },
    {
      "code": 1042030000,
      "area_type_id": 1,
      "name": "เลย เขต 3",
      "region_id": 5,
      "inspection_id": 10,
      "address": "439 หมู่ที่ 1",
      "district_id": 413,
      "province_id": 31,
      "zip_code": 42120,
      "tel": "42810495",
      "num_school": 107,
      "num_teacher": 0,
      "num_student": 851,
      "num_person": 0,
      "website": "www.loei3.go.th",
      "latitude": 17.3530063,
      "longtitude": 101.2307115
    },
    {
      "code": 1042110000,
      "area_type_id": 2,
      "name": "เลย-หนองบัวลำภู",
      "region_id": 5,
      "inspection_id": 10,
      "address": "334 หมู่ 4",
      "district_id": 409,
      "province_id": 31,
      "zip_code": 42000,
      "tel": "42870409",
      "num_school": 52,
      "num_teacher": 0,
      "num_student": 2723,
      "num_person": 0,
      "website": "www.sesao19.go.th",
      "latitude": 17.4615967,
      "longtitude": 101.7128152
    },
    {
      "code": 1043010000,
      "area_type_id": 1,
      "name": "หนองคาย เขต 1",
      "region_id": 5,
      "inspection_id": 10,
      "address": "250 หมู่ที่ 1",
      "district_id": 423,
      "province_id": 32,
      "zip_code": 43000,
      "tel": "42412692",
      "num_school": 156,
      "num_teacher": 0,
      "num_student": 1148,
      "num_person": 0,
      "website": "www.nkedu1.go.th",
      "latitude": 17.8653091,
      "longtitude": 102.7408128
    },
    {
      "code": 1043020000,
      "area_type_id": 1,
      "name": "หนองคาย เขต 2",
      "region_id": 5,
      "inspection_id": 10,
      "address": "444 หมู่ 2",
      "district_id": 425,
      "province_id": 32,
      "zip_code": 43120,
      "tel": "42471969",
      "num_school": 102,
      "num_teacher": 0,
      "num_student": 1191,
      "num_person": 0,
      "website": "www.nongkhai2.go.th",
      "latitude": 18.0349656,
      "longtitude": 103.0826207
    },
    {
      "code": 1043110000,
      "area_type_id": 2,
      "name": "หนองคาย",
      "region_id": 5,
      "inspection_id": 10,
      "address": "393 หมู่ 6 ถนนมิตรภาพ",
      "district_id": 423,
      "province_id": 32,
      "zip_code": 43000,
      "tel": "42421074",
      "num_school": 31,
      "num_teacher": 0,
      "num_student": 1335,
      "num_person": 0,
      "website": "",
      "latitude": 17.8384066,
      "longtitude": 102.7519393
    },
    {
      "code": 1044010000,
      "area_type_id": 1,
      "name": "มหาสารคาม เขต 1",
      "region_id": 5,
      "inspection_id": 12,
      "address": "85 ถนนศรีสวัสดิ์ดำเนิน",
      "district_id": 432,
      "province_id": 33,
      "zip_code": 44000,
      "tel": "43723517",
      "num_school": 196,
      "num_teacher": 0,
      "num_student": 1301,
      "num_person": 0,
      "website": "www.mkarea1.go.th",
      "latitude": 16.1850703,
      "longtitude": 103.2989746
    },
    {
      "code": 1044020000,
      "area_type_id": 1,
      "name": "มหาสารคาม เขต 2",
      "region_id": 5,
      "inspection_id": 12,
      "address": "417 หมู่ 1 ถนนสมารักษ์",
      "district_id": 440,
      "province_id": 33,
      "zip_code": 44120,
      "tel": "43799340",
      "num_school": 221,
      "num_teacher": 0,
      "num_student": 2287,
      "num_person": 0,
      "website": "www.mkarea2.go.th",
      "latitude": 15.8454774,
      "longtitude": 103.3751388
    },
    {
      "code": 1044030000,
      "area_type_id": 1,
      "name": "มหาสารคาม เขต 3",
      "region_id": 5,
      "inspection_id": 12,
      "address": "354 หมู่ที่ 2",
      "district_id": 434,
      "province_id": 33,
      "zip_code": 44140,
      "tel": "43762363",
      "num_school": 145,
      "num_teacher": 0,
      "num_student": 1458,
      "num_person": 0,
      "website": "www.mkarea3.go.th",
      "latitude": 16.2463961,
      "longtitude": 103.0667549
    },
    {
      "code": 1044110000,
      "area_type_id": 2,
      "name": "มหาสารคาม",
      "region_id": 5,
      "inspection_id": 12,
      "address": "ถนนเลี่ยงเมืองมหาสารคาม - ร้อยเอ็ด",
      "district_id": 432,
      "province_id": 33,
      "zip_code": 44000,
      "tel": "43777897",
      "num_school": 35,
      "num_teacher": 0,
      "num_student": 2083,
      "num_person": 0,
      "website": "www.ses26.go.th",
      "latitude": 16.1579502,
      "longtitude": 103.310211
    },
    {
      "code": 1045010000,
      "area_type_id": 1,
      "name": "ร้อยเอ็ด เขต 1",
      "region_id": 5,
      "inspection_id": 12,
      "address": "103/1 ถนนรณชัยชาญยุทธ",
      "district_id": 445,
      "province_id": 34,
      "zip_code": 45000,
      "tel": "43513003",
      "num_school": 229,
      "num_teacher": 0,
      "num_student": 1628,
      "num_person": 0,
      "website": "www.roiet1.go.th",
      "latitude": 16.0469773,
      "longtitude": 103.649069
    },
    {
      "code": 1045020000,
      "area_type_id": 1,
      "name": "ร้อยเอ็ด เขต 2",
      "region_id": 5,
      "inspection_id": 12,
      "address": "123 หมู่ 2",
      "district_id": 455,
      "province_id": 34,
      "zip_code": 45130,
      "tel": "43624954",
      "num_school": 332,
      "num_teacher": 0,
      "num_student": 3272,
      "num_person": 0,
      "website": "www.ret2.go.th",
      "latitude": 15.640356,
      "longtitude": 3.7823257
    },
    {
      "code": 1045030000,
      "area_type_id": 1,
      "name": "ร้อยเอ็ด เขต 3",
      "region_id": 5,
      "inspection_id": 12,
      "address": "664 หมู่ที่ 3 ถนนโพนทอง-หนองพอก",
      "district_id": 451,
      "province_id": 34,
      "zip_code": 45110,
      "tel": "43571388",
      "num_school": 208,
      "num_teacher": 0,
      "num_student": 2393,
      "num_person": 0,
      "website": "www.roiet3.go.th",
      "latitude": 16.2986322,
      "longtitude": 103.9898873
    },
    {
      "code": 1045110000,
      "area_type_id": 2,
      "name": "ร้อยเอ็ด",
      "region_id": 5,
      "inspection_id": 12,
      "address": "ถนนเทวาภิบาล",
      "district_id": 445,
      "province_id": 34,
      "zip_code": 45000,
      "tel": "43515369",
      "num_school": 60,
      "num_teacher": 0,
      "num_student": 2820,
      "num_person": 0,
      "website": "www.secondary27.go.th",
      "latitude": 16.0534412,
      "longtitude": 103.6573936
    },
    {
      "code": 1046010000,
      "area_type_id": 1,
      "name": "กาฬสินธุ์ เขต 1",
      "region_id": 5,
      "inspection_id": 12,
      "address": "99/7 ถนนสนามบิน",
      "district_id": 465,
      "province_id": 35,
      "zip_code": 46000,
      "tel": "43811211",
      "num_school": 171,
      "num_teacher": 0,
      "num_student": 1815,
      "num_person": 0,
      "website": "www.ksn1.go.th",
      "latitude": 16.4164442,
      "longtitude": 103.5168369
    },
    {
      "code": 1046020000,
      "area_type_id": 1,
      "name": "กาฬสินธุ์ เขต 2",
      "region_id": 5,
      "inspection_id": 12,
      "address": "312 หมู่ 4 ถนนกระนวน - ฮ่องฮี",
      "district_id": 472,
      "province_id": 35,
      "zip_code": 46170,
      "tel": "43889534",
      "num_school": 167,
      "num_teacher": 0,
      "num_student": 1328,
      "num_person": 0,
      "website": "www.kalasin2.go.th",
      "latitude": 16.5983816,
      "longtitude": 103.2280283
    },
    {
      "code": 1046030000,
      "area_type_id": 1,
      "name": "กาฬสินธุ์ เขต 3",
      "region_id": 5,
      "inspection_id": 12,
      "address": "ถนนห้วยผึ้ง-นาคู",
      "district_id": 478,
      "province_id": 35,
      "zip_code": 46240,
      "tel": "43869585",
      "num_school": 199,
      "num_teacher": 0,
      "num_student": 1728,
      "num_person": 0,
      "website": "www.kalasin3.go.th",
      "latitude": 16.6474673,
      "longtitude": 103.9085261
    },
    {
      "code": 1046110000,
      "area_type_id": 2,
      "name": "กาฬสินธุ์",
      "region_id": 5,
      "inspection_id": 12,
      "address": "ถนนถีนานน์",
      "district_id": 465,
      "province_id": 35,
      "zip_code": 46000,
      "tel": "43810543",
      "num_school": 55,
      "num_teacher": 0,
      "num_student": 1905,
      "num_person": 0,
      "website": "www.sesa.24.go.th",
      "latitude": 16.4655009,
      "longtitude": 103.5507498
    },
    {
      "code": 1047010000,
      "area_type_id": 1,
      "name": "สกลนคร เขต 1",
      "region_id": 5,
      "inspection_id": 11,
      "address": "ถนนนิตโย",
      "district_id": 483,
      "province_id": 36,
      "zip_code": 47000,
      "tel": "42970131",
      "num_school": 175,
      "num_teacher": 0,
      "num_student": 2698,
      "num_person": 0,
      "website": "www.sakonarea1.go.th",
      "latitude": 17.1960252,
      "longtitude": 104.0814417
    },
    {
      "code": 1047020000,
      "area_type_id": 1,
      "name": "สกลนคร เขต 2",
      "region_id": 5,
      "inspection_id": 11,
      "address": "917 หมู่ 11",
      "district_id": 494,
      "province_id": 36,
      "zip_code": 47110,
      "tel": "42772321",
      "num_school": 255,
      "num_teacher": 0,
      "num_student": 3292,
      "num_person": 0,
      "website": "www.sakon2.go.th",
      "latitude": 17.4808716,
      "longtitude": 103.4598663
    },
    {
      "code": 1047030000,
      "area_type_id": 1,
      "name": "สกลนคร เขต 3",
      "region_id": 5,
      "inspection_id": 11,
      "address": "530 หมู่ที่ 5 ถนนเดื่อเจริญ",
      "district_id": 490,
      "province_id": 36,
      "zip_code": 47120,
      "tel": "042792131-4",
      "num_school": 182,
      "num_teacher": 0,
      "num_student": 3292,
      "num_person": 0,
      "website": "www.sakonnakhon3.go.th",
      "latitude": 17.6307284,
      "longtitude": 103.7518566
    },
    {
      "code": 1047110000,
      "area_type_id": 2,
      "name": "สกลนคร",
      "region_id": 5,
      "inspection_id": 11,
      "address": "ถนนไอทียู",
      "district_id": 483,
      "province_id": 36,
      "zip_code": 47000,
      "tel": "42728118",
      "num_school": 45,
      "num_teacher": 0,
      "num_student": 2472,
      "num_person": 0,
      "website": "www.sesarea23.go.th/home/",
      "latitude": 17.1465539,
      "longtitude": 104.1550185
    },
    {
      "code": 1048010000,
      "area_type_id": 1,
      "name": "นครพนม เขต 1",
      "region_id": 5,
      "inspection_id": 11,
      "address": "35 ถนนกลางเมือง",
      "district_id": 501,
      "province_id": 37,
      "zip_code": 48000,
      "tel": "42512337",
      "num_school": 249,
      "num_teacher": 0,
      "num_student": 2880,
      "num_person": 0,
      "website": "www.nkpedu1.go.th",
      "latitude": 17.4173865,
      "longtitude": 104.7711494
    },
    {
      "code": 1048020000,
      "area_type_id": 1,
      "name": "นครพนม เขต 2",
      "region_id": 5,
      "inspection_id": 11,
      "address": "10 หมู่ 9 ถนนศรีสงคราม-ท่าดอกแก้ว",
      "district_id": 508,
      "province_id": 37,
      "zip_code": 48150,
      "tel": "42599265",
      "num_school": 181,
      "num_teacher": 0,
      "num_student": 1718,
      "num_person": 0,
      "website": "web.nkp2.go.th",
      "latitude": 17.6212139,
      "longtitude": 104.2792625
    },
    {
      "code": 1048110000,
      "area_type_id": 2,
      "name": "นครพนม",
      "region_id": 5,
      "inspection_id": 11,
      "address": "42 ถนนปิยะมหาราชาลัย",
      "district_id": 501,
      "province_id": 37,
      "zip_code": 48000,
      "tel": "42513973",
      "num_school": 51,
      "num_teacher": 0,
      "num_student": 1666,
      "num_person": 0,
      "website": "",
      "latitude": 17.4040203,
      "longtitude": 104.7818871
    },
    {
      "code": 1049010000,
      "area_type_id": 1,
      "name": "มุกดาหาร",
      "region_id": 5,
      "inspection_id": 11,
      "address": "17 ถนนวิวิธสุรการ",
      "district_id": 513,
      "province_id": 38,
      "zip_code": 49000,
      "tel": "42611832",
      "num_school": 243,
      "num_teacher": 0,
      "num_student": 1339,
      "num_person": 0,
      "website": "www.mdh.go.th",
      "latitude": 16.5465846,
      "longtitude": 104.7265655
    },
    {
      "code": 1049110000,
      "area_type_id": 2,
      "name": "มุกดาหาร",
      "region_id": 5,
      "inspection_id": 11,
      "address": "147 โรงเรียนมุกดาหาร (อาคารเกษตร) ถนนมุกดาหาร",
      "district_id": 513,
      "province_id": 38,
      "zip_code": 49000,
      "tel": "42620639",
      "num_school": 30,
      "num_teacher": 0,
      "num_student": 819,
      "num_person": 0,
      "website": "www.sesaomuk.go.th",
      "latitude": 16.5360643,
      "longtitude": 104.7156827
    },
    {
      "code": 1050010000,
      "area_type_id": 1,
      "name": "เชียงใหม่ เขต 1",
      "region_id": 6,
      "inspection_id": 15,
      "address": "อาคารอำนวยการกลาง ศาลากลางจังหวัดเชียงใหม่ (ชั้น 4 ) ถนนโชตนา",
      "district_id": 520,
      "province_id": 39,
      "zip_code": 50300,
      "tel": "53112333",
      "num_school": 86,
      "num_teacher": 0,
      "num_student": 1132,
      "num_person": 0,
      "website": "www.chiangmaiareal.go.th",
      "latitude": 18.8368324,
      "longtitude": 98.9711466
    },
    {
      "code": 1050020000,
      "area_type_id": 1,
      "name": "เชียงใหม่ เขต 2",
      "region_id": 6,
      "inspection_id": 15,
      "address": "",
      "district_id": 526,
      "province_id": 39,
      "zip_code": 50180,
      "tel": "53465555",
      "num_school": 131,
      "num_teacher": 0,
      "num_student": 1386,
      "num_person": 0,
      "website": "www.cme2.go.th",
      "latitude": 18.9659094,
      "longtitude": 98.9449547
    },
    {
      "code": 1050030000,
      "area_type_id": 1,
      "name": "เชียงใหม่ เขต 3",
      "region_id": 6,
      "inspection_id": 15,
      "address": "177 ถนนโชตนา หมู่ที่ 12",
      "district_id": 528,
      "province_id": 39,
      "zip_code": 50110,
      "tel": "53346666",
      "num_school": 156,
      "num_teacher": 0,
      "num_student": 1878,
      "num_person": 0,
      "website": "www.cmarea3.go.th",
      "latitude": 19.8458389,
      "longtitude": 99.1728246
    },
    {
      "code": 1050040000,
      "area_type_id": 1,
      "name": "เชียงใหม่ เขต 4",
      "region_id": 6,
      "inspection_id": 15,
      "address": "134 หมู่ที่ 8 ถนนเชียงใหม่ - ฮอด",
      "district_id": 531,
      "province_id": 39,
      "zip_code": 50120,
      "tel": "53311351",
      "num_school": 85,
      "num_teacher": 0,
      "num_student": 998,
      "num_person": 0,
      "website": "cmi4.go.th/web/",
      "latitude": 18.6464047,
      "longtitude": 98.9029628
    },
    {
      "code": 1050050000,
      "area_type_id": 1,
      "name": "เชียงใหม่ เขต 5",
      "region_id": 6,
      "inspection_id": 15,
      "address": "404 หมู่ 10",
      "district_id": 535,
      "province_id": 39,
      "zip_code": 50240,
      "tel": "53461089",
      "num_school": 94,
      "num_teacher": 0,
      "num_student": 1318,
      "num_person": 0,
      "website": "",
      "latitude": 18.1847751,
      "longtitude": 98.6120092
    },
    {
      "code": 1050060000,
      "area_type_id": 1,
      "name": "เชียงใหม่ เขต 6",
      "region_id": 6,
      "inspection_id": 15,
      "address": "190 หมู่ 15",
      "district_id": 521,
      "province_id": 39,
      "zip_code": 50160,
      "tel": "53341375",
      "num_school": 98,
      "num_teacher": 0,
      "num_student": 1299,
      "num_person": 0,
      "website": "www.chiangmaiarea6.go.th/cma6/",
      "latitude": 18.4617218,
      "longtitude": 98.6730598
    },
    {
      "code": 1050110000,
      "area_type_id": 2,
      "name": "เชียงใหม่",
      "region_id": 6,
      "inspection_id": 15,
      "address": "อาคารอำนวยการ ชั้น 4,5 ศาลากลางจังหวัดเชียงใหม่",
      "district_id": 520,
      "province_id": 39,
      "zip_code": 50300,
      "tel": "053112974-5",
      "num_school": 34,
      "num_teacher": 0,
      "num_student": 1984,
      "num_person": 0,
      "website": "www.secondarycm.go.th/web",
      "latitude": 18.8375973,
      "longtitude": 98.9713529
    },
    {
      "code": 1051010000,
      "area_type_id": 1,
      "name": "ลำพูน เขต 1",
      "region_id": 6,
      "inspection_id": 15,
      "address": "65/2 หมู่ 4 ถนนลำพูน-ป่าซาง",
      "district_id": 545,
      "province_id": 40,
      "zip_code": 51000,
      "tel": "53003547",
      "num_school": 98,
      "num_teacher": 0,
      "num_student": 612,
      "num_person": 0,
      "website": "http://lamphun1.go.th",
      "latitude": 18.5480334,
      "longtitude": 98.9708017
    },
    {
      "code": 1051020000,
      "area_type_id": 1,
      "name": "ลำพูน เขต 2",
      "region_id": 6,
      "inspection_id": 15,
      "address": "165 หมู่ 6 บ้านดอยก้อม",
      "district_id": 547,
      "province_id": 40,
      "zip_code": 51130,
      "tel": "53980351",
      "num_school": 78,
      "num_teacher": 0,
      "num_student": 688,
      "num_person": 0,
      "website": "www.lp2.go.th",
      "latitude": 18.319198,
      "longtitude": 98.816094
    },
    {
      "code": 1052010000,
      "area_type_id": 1,
      "name": "ลำปาง เขต 1",
      "region_id": 6,
      "inspection_id": 15,
      "address": "หมู่ที่ 12",
      "district_id": 553,
      "province_id": 41,
      "zip_code": 52000,
      "tel": "54335068",
      "num_school": 114,
      "num_teacher": 0,
      "num_student": 1566,
      "num_person": 0,
      "website": "http://lpg1.go.th",
      "latitude": 18.3432421,
      "longtitude": 99.5424055
    },
    {
      "code": 1052020000,
      "area_type_id": 1,
      "name": "ลำปาง เขต 2",
      "region_id": 6,
      "inspection_id": 15,
      "address": "376 หมู่ 3 ถนนพหลโยธิน",
      "district_id": 555,
      "province_id": 41,
      "zip_code": 52130,
      "tel": "54284791",
      "num_school": 103,
      "num_teacher": 0,
      "num_student": 852,
      "num_person": 0,
      "website": "http://lpg2.obec.go.th",
      "latitude": 18.1979495,
      "longtitude": 99.4026666
    },
    {
      "code": 1052030000,
      "area_type_id": 1,
      "name": "ลำปาง เขต 3",
      "region_id": 6,
      "inspection_id": 15,
      "address": "359 หมู่ 1 ถนนวิเชตวัฒนา",
      "district_id": 558,
      "province_id": 41,
      "zip_code": 52120,
      "tel": "54271214",
      "num_school": 92,
      "num_teacher": 0,
      "num_student": 720,
      "num_person": 0,
      "website": "www.lpg3.go.th",
      "latitude": 18.7026803,
      "longtitude": 99.5673967
    },
    {
      "code": 1052110000,
      "area_type_id": 2,
      "name": "ลำปาง-ลำพูน",
      "region_id": 6,
      "inspection_id": 15,
      "address": "409/1 ถนนพระเจ้าทันใจ",
      "district_id": 553,
      "province_id": 41,
      "zip_code": 52000,
      "tel": "",
      "num_school": 45,
      "num_teacher": 0,
      "num_student": 1759,
      "num_person": 0,
      "website": "www.sesalpglpn.go.th",
      "latitude": 18.3092561,
      "longtitude": 99.4969424
    },
    {
      "code": 1053010000,
      "area_type_id": 1,
      "name": "อุตรดิตถ์ เขต 1",
      "region_id": 6,
      "inspection_id": 17,
      "address": "91/7 หมู่ 3 ถนนเฉลิมราชย์พาดวารี",
      "district_id": 566,
      "province_id": 42,
      "zip_code": 53000,
      "tel": "55817760",
      "num_school": 136,
      "num_teacher": 0,
      "num_student": 1662,
      "num_person": 0,
      "website": "www.utdone.net",
      "latitude": 17.6091289,
      "longtitude": 100.1133193
    },
    {
      "code": 1053020000,
      "area_type_id": 1,
      "name": "อุตรดิตถ์ เขต 2",
      "region_id": 6,
      "inspection_id": 17,
      "address": "12 หมู่ 4",
      "district_id": 569,
      "province_id": 42,
      "zip_code": 53110,
      "tel": "55481125",
      "num_school": 76,
      "num_teacher": 0,
      "num_student": 578,
      "num_person": 0,
      "website": "www.utd2.go.th",
      "latitude": 17.7248582,
      "longtitude": 100.6818939
    },
    {
      "code": 1054010000,
      "area_type_id": 1,
      "name": "แพร่ เขต 1",
      "region_id": 6,
      "inspection_id": 16,
      "address": "52 หมู่ที่ 6 ถนนยันตรกิจโกศล",
      "district_id": 575,
      "province_id": 43,
      "zip_code": 54000,
      "tel": "54511605",
      "num_school": 118,
      "num_teacher": 0,
      "num_student": 909,
      "num_person": 0,
      "website": "www.phrae1.go.th",
      "latitude": 18.1534077,
      "longtitude": 100.1594705
    },
    {
      "code": 1054020000,
      "area_type_id": 1,
      "name": "แพร่ เขต 2",
      "region_id": 6,
      "inspection_id": 16,
      "address": "234 หมู่ที่ 14",
      "district_id": 577,
      "province_id": 43,
      "zip_code": 54150,
      "tel": "54584130",
      "num_school": 124,
      "num_teacher": 0,
      "num_student": 722,
      "num_person": 0,
      "website": "www.ictphrae2.com",
      "latitude": 18.0835106,
      "longtitude": 699.845559
    },
    {
      "code": 1054110000,
      "area_type_id": 2,
      "name": "แพร่",
      "region_id": 6,
      "inspection_id": 16,
      "address": "2 ถนนแพร่ - ลอง",
      "district_id": 575,
      "province_id": 43,
      "zip_code": 54000,
      "tel": "54511137",
      "num_school": 16,
      "num_teacher": 0,
      "num_student": 749,
      "num_person": 0,
      "website": "sesaphrae.sesa37.go.th",
      "latitude": 18.1361045,
      "longtitude": 100.1336593
    },
    {
      "code": 1055010000,
      "area_type_id": 1,
      "name": "น่าน เขต 1",
      "region_id": 6,
      "inspection_id": 16,
      "address": "114 หมู่ 6 บ้านพญาวัด ถนนยันตรกิจโกศล",
      "district_id": 583,
      "province_id": 44,
      "zip_code": 55000,
      "tel": "54710029",
      "num_school": 181,
      "num_teacher": 0,
      "num_student": 1863,
      "num_person": 0,
      "website": "www.ednan1.go.th",
      "latitude": 18.7679318,
      "longtitude": 100.7633684
    },
    {
      "code": 1055020000,
      "area_type_id": 1,
      "name": "น่าน เขต 2",
      "region_id": 6,
      "inspection_id": 16,
      "address": "418 หมู่ 8",
      "district_id": 587,
      "province_id": 44,
      "zip_code": 55120,
      "tel": "54791510",
      "num_school": 143,
      "num_teacher": 0,
      "num_student": 1842,
      "num_person": 0,
      "website": "www.nan2.go.th",
      "latitude": 19.1808475,
      "longtitude": 100.9077169
    },
    {
      "code": 1055110000,
      "area_type_id": 2,
      "name": "น่าน",
      "region_id": 6,
      "inspection_id": 16,
      "address": "281 หมู่ที่ 2",
      "district_id": 596,
      "province_id": 44,
      "zip_code": null,
      "tel": "54718906",
      "num_school": 30,
      "num_teacher": 0,
      "num_student": 1301,
      "num_person": 0,
      "website": "www.spmnan.go.th",
      "latitude": 18.7688229,
      "longtitude": 100.7818955
    },
    {
      "code": 1056010000,
      "area_type_id": 1,
      "name": "พะเยา เขต 1",
      "region_id": 6,
      "inspection_id": 16,
      "address": "598 หมู่ 11 ถนนสนามกีฬา",
      "district_id": 598,
      "province_id": 45,
      "zip_code": 56000,
      "tel": "54887204",
      "num_school": 81,
      "num_teacher": 0,
      "num_student": 685,
      "num_person": 0,
      "website": "",
      "latitude": 19.2048612,
      "longtitude": 99.8909269
    },
    {
      "code": 1056020000,
      "area_type_id": 1,
      "name": "พะเยา เขต 2",
      "region_id": 6,
      "inspection_id": 16,
      "address": "หมู่ที่ 17",
      "district_id": 599,
      "province_id": 45,
      "zip_code": 56150,
      "tel": "54079869",
      "num_school": 132,
      "num_teacher": 0,
      "num_student": 1006,
      "num_person": 0,
      "website": "www.phayao2.go.th/th",
      "latitude": 19.3113642,
      "longtitude": 100.1678313
    },
    {
      "code": 1056110000,
      "area_type_id": 2,
      "name": "พะเยา",
      "region_id": 6,
      "inspection_id": 16,
      "address": "23/26 ถนนประตูกลอง",
      "district_id": 598,
      "province_id": 45,
      "zip_code": 56000,
      "tel": "54481537",
      "num_school": 18,
      "num_teacher": 0,
      "num_student": 878,
      "num_person": 0,
      "website": "www.sesapy.go.th",
      "latitude": 19.1732295,
      "longtitude": 99.9016411
    },
    {
      "code": 1057010000,
      "area_type_id": 1,
      "name": "เชียงราย เขต 1",
      "region_id": 6,
      "inspection_id": 16,
      "address": "1036/36 ถนนสนามบิน",
      "district_id": 607,
      "province_id": 46,
      "zip_code": 57000,
      "tel": "53711410",
      "num_school": 102,
      "num_teacher": 0,
      "num_student": 1117,
      "num_person": 0,
      "website": "http://110.78.114.130/main01.php",
      "latitude": 19.9005137,
      "longtitude": 99.8279824
    },
    {
      "code": 1057020000,
      "area_type_id": 1,
      "name": "เชียงราย เขต 2",
      "region_id": 6,
      "inspection_id": 16,
      "address": "361 หมู่ 3 บ้านร่องศาลา ถนนพหลโยธิน",
      "district_id": 622,
      "province_id": 46,
      "zip_code": 57250,
      "tel": "53739133",
      "num_school": 144,
      "num_teacher": 0,
      "num_student": 1904,
      "num_person": 0,
      "website": "www.cri2.go.th",
      "latitude": 19.7443551,
      "longtitude": 99.7255886
    },
    {
      "code": 1057030000,
      "area_type_id": 1,
      "name": "เชียงราย เขต 3",
      "region_id": 6,
      "inspection_id": 16,
      "address": "บ้านศาลา หมู่ 8",
      "district_id": 613,
      "province_id": 46,
      "zip_code": 57110,
      "tel": "53653463",
      "num_school": 139,
      "num_teacher": 0,
      "num_student": 1799,
      "num_person": 0,
      "website": "cr3.go.th",
      "latitude": 20.1634521,
      "longtitude": 99.8669127
    },
    {
      "code": 1057040000,
      "area_type_id": 1,
      "name": "เชียงราย เขต 4",
      "region_id": 6,
      "inspection_id": 16,
      "address": "17 หมู่ที่ 20",
      "district_id": 610,
      "province_id": 46,
      "zip_code": 57160,
      "tel": "53795431",
      "num_school": 128,
      "num_teacher": 0,
      "num_student": 1637,
      "num_person": 0,
      "website": "cri4@cri4.go.th",
      "latitude": 19.6878529,
      "longtitude": 100.1851155
    },
    {
      "code": 1057110000,
      "area_type_id": 2,
      "name": "เชียงราย",
      "region_id": 6,
      "inspection_id": 16,
      "address": "1115/23 ไกรสรสิทธิ์",
      "district_id": 607,
      "province_id": 46,
      "zip_code": 57000,
      "tel": "536101451",
      "num_school": 41,
      "num_teacher": 0,
      "num_student": 2113,
      "num_person": 0,
      "website": "www.sesaocr.go.th",
      "latitude": 19.9158506,
      "longtitude": 699.826224
    },
    {
      "code": 1058010000,
      "area_type_id": 1,
      "name": "แม่ฮ่องสอน เขต 1",
      "region_id": 6,
      "inspection_id": 15,
      "address": "98 ถนนขุนลุมประพาส",
      "district_id": 625,
      "province_id": 47,
      "zip_code": 58000,
      "tel": "53611996",
      "num_school": 127,
      "num_teacher": 0,
      "num_student": 1111,
      "num_person": 0,
      "website": "www.mhs1.go.th/2021",
      "latitude": 19.2977851,
      "longtitude": 97.9602948
    },
    {
      "code": 1058020000,
      "area_type_id": 1,
      "name": "แม่ฮ่องสอน เขต 2",
      "region_id": 6,
      "inspection_id": 15,
      "address": "178 ถนนเวียงใหม่",
      "district_id": 628,
      "province_id": 47,
      "zip_code": 58110,
      "tel": "53621303",
      "num_school": 176,
      "num_teacher": 0,
      "num_student": 1860,
      "num_person": 0,
      "website": "www1.mhs2.go.th",
      "latitude": 18.1589926,
      "longtitude": 97.9140861
    },
    {
      "code": 1058110000,
      "area_type_id": 2,
      "name": "แม่ฮ่องสอน",
      "region_id": 6,
      "inspection_id": 15,
      "address": "1/17 ถนนขุนลุมประพาส",
      "district_id": 625,
      "province_id": 47,
      "zip_code": 58000,
      "tel": "52049655",
      "num_school": 8,
      "num_teacher": 0,
      "num_student": 458,
      "num_person": 0,
      "website": "",
      "latitude": 19.3113958,
      "longtitude": 97.9641055
    },
    {
      "code": 1060010000,
      "area_type_id": 1,
      "name": "นครสวรรค์ เขต 1",
      "region_id": 6,
      "inspection_id": 18,
      "address": "347/1 ถนนสวรรค์วิถี",
      "district_id": 632,
      "province_id": 48,
      "zip_code": 60000,
      "tel": "56222530",
      "num_school": 156,
      "num_teacher": 0,
      "num_student": 1177,
      "num_person": 0,
      "website": "www.nsw1.go.th",
      "latitude": 15.6931447,
      "longtitude": 100.1212228
    },
    {
      "code": 1060020000,
      "area_type_id": 1,
      "name": "นครสวรรค์ เขต 2",
      "region_id": 6,
      "inspection_id": 18,
      "address": "289/4 หมู่ 5",
      "district_id": 642,
      "province_id": 48,
      "zip_code": 60150,
      "tel": "56271413",
      "num_school": 145,
      "num_teacher": 0,
      "num_student": 1688,
      "num_person": 0,
      "website": "www.nsw2.go.th",
      "latitude": 15.7643335,
      "longtitude": 599.798589
    },
    {
      "code": 1060030000,
      "area_type_id": 1,
      "name": "นครสวรรค์ เขต 3",
      "region_id": 6,
      "inspection_id": 18,
      "address": "504 หมู่ที่ 3",
      "district_id": 640,
      "province_id": 48,
      "zip_code": 60220,
      "tel": "56259608",
      "num_school": 196,
      "num_teacher": 0,
      "num_student": 1653,
      "num_person": 0,
      "website": "www.nsw3.go.th",
      "latitude": 15.595954,
      "longtitude": 100.641444
    },
    {
      "code": 1060110000,
      "area_type_id": 2,
      "name": "นครสวรรค์",
      "region_id": 6,
      "inspection_id": 18,
      "address": "105/30 ม.10",
      "district_id": 632,
      "province_id": 48,
      "zip_code": 60000,
      "tel": "056228846-847",
      "num_school": 37,
      "num_teacher": 0,
      "num_student": 1647,
      "num_person": 0,
      "website": "www.spmnw.obec.go.th",
      "latitude": 15.7214441,
      "longtitude": 100.1182099
    },
    {
      "code": 1061010000,
      "area_type_id": 1,
      "name": "อุทัยธานี เขต 1",
      "region_id": 1,
      "inspection_id": 2,
      "address": "87 หมู่ที่ 2",
      "district_id": 647,
      "province_id": 49,
      "zip_code": 61000,
      "tel": "910289709",
      "num_school": 77,
      "num_teacher": 0,
      "num_student": 650,
      "num_person": 0,
      "website": "www.utt1.go.th",
      "latitude": 15.3921379,
      "longtitude": 100.0227608
    },
    {
      "code": 1061020000,
      "area_type_id": 1,
      "name": "อุทัยธานี เขต 2",
      "region_id": 1,
      "inspection_id": 2,
      "address": "505 หมู่ 5",
      "district_id": 647,
      "province_id": 49,
      "zip_code": 61110,
      "tel": "885865501",
      "num_school": 123,
      "num_teacher": 0,
      "num_student": 1071,
      "num_person": 0,
      "website": "www.utt2.go.th",
      "latitude": 15.3895809,
      "longtitude": 99.8429924
    },
    {
      "code": 1061110000,
      "area_type_id": 2,
      "name": "อุทัยธานี-ชัยนาท",
      "region_id": 1,
      "inspection_id": 2,
      "address": "268 ถนนมณรัตน์",
      "district_id": 647,
      "province_id": 49,
      "zip_code": 61000,
      "tel": "56040215",
      "num_school": 34,
      "num_teacher": 0,
      "num_student": 1510,
      "num_person": 0,
      "website": "spmuncn.obec.go.th",
      "latitude": 15.3772906,
      "longtitude": 100.0194139
    },
    {
      "code": 1062010000,
      "area_type_id": 1,
      "name": "กำแพงเพชร เขต 1",
      "region_id": 6,
      "inspection_id": 18,
      "address": "328 หมู่ 7",
      "district_id": 655,
      "province_id": 50,
      "zip_code": 62000,
      "tel": "55705123",
      "num_school": 202,
      "num_teacher": 0,
      "num_student": 1851,
      "num_person": 0,
      "website": "www.kpt1.go.th",
      "latitude": 16.555964,
      "longtitude": 99.5180847
    },
    {
      "code": 1062020000,
      "area_type_id": 1,
      "name": "กำแพงเพชร เขต 2",
      "region_id": 6,
      "inspection_id": 18,
      "address": "299 หมู่ที่ 10",
      "district_id": 659,
      "province_id": 50,
      "zip_code": 62120,
      "tel": "55781893",
      "num_school": 175,
      "num_teacher": 0,
      "num_student": 1411,
      "num_person": 0,
      "website": "www.kpp2.go.th",
      "latitude": 16.2174896,
      "longtitude": 99.7021119
    },
    {
      "code": 1062110000,
      "area_type_id": 2,
      "name": "กำแพงเพชร",
      "region_id": 6,
      "inspection_id": 18,
      "address": "41 ถนนเทศา 1",
      "district_id": 655,
      "province_id": 50,
      "zip_code": 62000,
      "tel": "55713763",
      "num_school": 32,
      "num_teacher": 0,
      "num_student": 1452,
      "num_person": 0,
      "website": "www.sesaokpp.go.th",
      "latitude": 16.4791155,
      "longtitude": 99.5256655
    },
    {
      "code": 1063010000,
      "area_type_id": 1,
      "name": "ตาก เขต 1",
      "region_id": 6,
      "inspection_id": 17,
      "address": "10/1 ถนนพหลโยธิน",
      "district_id": 666,
      "province_id": 51,
      "zip_code": 63000,
      "tel": "55512537",
      "num_school": 107,
      "num_teacher": 0,
      "num_student": 886,
      "num_person": 0,
      "website": "www.takesa1.go.th",
      "latitude": 16.8851356,
      "longtitude": 99.1239554
    },
    {
      "code": 1063020000,
      "area_type_id": 1,
      "name": "ตาก เขต 2",
      "region_id": 6,
      "inspection_id": 17,
      "address": "35/4 ถนนประสาทวิถี",
      "district_id": 671,
      "province_id": 51,
      "zip_code": 63110,
      "tel": "55536548",
      "num_school": 116,
      "num_teacher": 0,
      "num_student": 2356,
      "num_person": 0,
      "website": "www.takesa2.go.th",
      "latitude": 16.7141042,
      "longtitude": 98.5772478
    },
    {
      "code": 1063110000,
      "area_type_id": 2,
      "name": "ตาก",
      "region_id": 6,
      "inspection_id": 17,
      "address": "4 ถนนท่าเรือ",
      "district_id": 666,
      "province_id": 51,
      "zip_code": 63000,
      "tel": "882938738",
      "num_school": 21,
      "num_teacher": 0,
      "num_student": 1048,
      "num_person": 0,
      "website": "www.secondarytak.go.th",
      "latitude": 16.8691667,
      "longtitude": 99.1314655
    },
    {
      "code": 1064010000,
      "area_type_id": 1,
      "name": "สุโขทัย เขต 1",
      "region_id": 6,
      "inspection_id": 17,
      "address": "37 หมู่ 1 ถนนจรดวิถีถ่อง",
      "district_id": 675,
      "province_id": 52,
      "zip_code": 64000,
      "tel": "55616180",
      "num_school": 126,
      "num_teacher": 0,
      "num_student": 1411,
      "num_person": 0,
      "website": "www.sukhothai1.go.th",
      "latitude": 17.0098378,
      "longtitude": 99.7900596
    },
    {
      "code": 1064020000,
      "area_type_id": 1,
      "name": "สุโขทัย เขต 2",
      "region_id": 6,
      "inspection_id": 17,
      "address": "126/1 ถนนจรดวิถีถ่อง",
      "district_id": 681,
      "province_id": 52,
      "zip_code": 64110,
      "tel": "055644175-9",
      "num_school": 162,
      "num_teacher": 0,
      "num_student": 1257,
      "num_person": 0,
      "website": "www.sukhothai2.go.th",
      "latitude": 17.3071134,
      "longtitude": 99.8313774
    },
    {
      "code": 1064110000,
      "area_type_id": 2,
      "name": "สุโขทัย",
      "region_id": 6,
      "inspection_id": 17,
      "address": "138 ถนนสิงหวัฒน์",
      "district_id": 675,
      "province_id": 52,
      "zip_code": 64000,
      "tel": "055612793-5",
      "num_school": 27,
      "num_teacher": 0,
      "num_student": 1109,
      "num_person": 0,
      "website": "www.sesaoskt.go.th",
      "latitude": 17.0094603,
      "longtitude": 99.8308804
    },
    {
      "code": 1065010000,
      "area_type_id": 1,
      "name": "พิษณุโลก เขต 1",
      "region_id": 6,
      "inspection_id": 17,
      "address": "ถนนพุทธบูชา",
      "district_id": 684,
      "province_id": 53,
      "zip_code": 65000,
      "tel": "55244633",
      "num_school": 113,
      "num_teacher": 0,
      "num_student": 2277,
      "num_person": 0,
      "website": "new.phitsanulok1.go.th",
      "latitude": 16.8210213,
      "longtitude": 100.2600023
    },
    {
      "code": 1065020000,
      "area_type_id": 1,
      "name": "พิษณุโลก เขต 2",
      "region_id": 6,
      "inspection_id": 17,
      "address": "หมู่ 3",
      "district_id": 691,
      "province_id": 53,
      "zip_code": 65130,
      "tel": "55394047",
      "num_school": 123,
      "num_teacher": 0,
      "num_student": 1295,
      "num_person": 0,
      "website": "www.phitsanulok2.go.th",
      "latitude": 16.7831428,
      "longtitude": 100.436319
    },
    {
      "code": 1065030000,
      "area_type_id": 1,
      "name": "พิษณุโลก เขต 3",
      "region_id": 6,
      "inspection_id": 17,
      "address": "889 หมู่ 6",
      "district_id": 690,
      "province_id": 53,
      "zip_code": 65160,
      "tel": "55361311",
      "num_school": 163,
      "num_teacher": 0,
      "num_student": 1441,
      "num_person": 0,
      "website": "www.phitsanulok3.go.th",
      "latitude": 16.9513585,
      "longtitude": 100.3423097
    },
    {
      "code": 1065110000,
      "area_type_id": 2,
      "name": "พิษณุโลก-อุตรดิตถ์",
      "region_id": 6,
      "inspection_id": 17,
      "address": "ถนนเลี่ยงเมืองพิษณุโลก - สุโขทัย",
      "district_id": 684,
      "province_id": 53,
      "zip_code": 65000,
      "tel": "055267235-6",
      "num_school": 57,
      "num_teacher": 0,
      "num_student": 2507,
      "num_person": 0,
      "website": "sec-plkutt.go.th",
      "latitude": 16.8031333,
      "longtitude": 100.2012542
    },
    {
      "code": 1066010000,
      "area_type_id": 1,
      "name": "พิจิตร เขต 1",
      "region_id": 6,
      "inspection_id": 18,
      "address": "31/26 ถนนคลองคะเชนทร์",
      "district_id": 693,
      "province_id": 54,
      "zip_code": 66000,
      "tel": "56990381",
      "num_school": 131,
      "num_teacher": 0,
      "num_student": 1458,
      "num_person": 0,
      "website": "www.phichit1.go.th",
      "latitude": 16.4439096,
      "longtitude": 100.3267917
    },
    {
      "code": 1066020000,
      "area_type_id": 1,
      "name": "พิจิตร เขต 2",
      "region_id": 6,
      "inspection_id": 18,
      "address": "390 หมู่ 3 ถนน ตะพานหิน - บางมูลนาท",
      "district_id": 696,
      "province_id": 54,
      "zip_code": 66110,
      "tel": "56623858",
      "num_school": 122,
      "num_teacher": 0,
      "num_student": 1154,
      "num_person": 0,
      "website": "site.phichit2.go.th",
      "latitude": 16.2161119,
      "longtitude": 100.4091749
    },
    {
      "code": 1066110000,
      "area_type_id": 2,
      "name": "พิจิตร",
      "region_id": 6,
      "inspection_id": 18,
      "address": "31/26 ถนนคลองคะเชนทร์",
      "district_id": 693,
      "province_id": 54,
      "zip_code": 66000,
      "tel": "56990347",
      "num_school": 30,
      "num_teacher": 0,
      "num_student": 944,
      "num_person": 0,
      "website": "www.sesaop.go.th",
      "latitude": 16.4432579,
      "longtitude": 100.3262317
    },
    {
      "code": 1067010000,
      "area_type_id": 1,
      "name": "เพชรบูรณ์ เขต 1",
      "region_id": 6,
      "inspection_id": 17,
      "address": "126 หมู่ 11",
      "district_id": 705,
      "province_id": 55,
      "zip_code": 67000,
      "tel": "56737080",
      "num_school": 126,
      "num_teacher": 0,
      "num_student": 1096,
      "num_person": 0,
      "website": "www.phetchabun1.go.th",
      "latitude": 16.4494486,
      "longtitude": 101.1523201
    },
    {
      "code": 1067020000,
      "area_type_id": 1,
      "name": "เพชรบูรณ์ เขต 2",
      "region_id": 6,
      "inspection_id": 17,
      "address": "158/1 หมู่ 1",
      "district_id": 707,
      "province_id": 55,
      "zip_code": 67110,
      "tel": "56704808",
      "num_school": 128,
      "num_teacher": 0,
      "num_student": 1227,
      "num_person": 0,
      "website": "www.phetchabun2.go.th",
      "latitude": 16.8071191,
      "longtitude": 101.2486742
    },
    {
      "code": 1067030000,
      "area_type_id": 1,
      "name": "เพชรบูรณ์ เขต 3",
      "region_id": 6,
      "inspection_id": 17,
      "address": "54/2 หมู่ 4",
      "district_id": 712,
      "province_id": 55,
      "zip_code": 67160,
      "tel": "56731256",
      "num_school": 188,
      "num_teacher": 0,
      "num_student": 1568,
      "num_person": 0,
      "website": "www.pbn3.go.th",
      "latitude": 15.827312,
      "longtitude": 1.0093485
    },
    {
      "code": 1067110000,
      "area_type_id": 2,
      "name": "เพชรบูรณ์",
      "region_id": 6,
      "inspection_id": 17,
      "address": "151 หมู่ 9",
      "district_id": 705,
      "province_id": 55,
      "zip_code": null,
      "tel": "56029656",
      "num_school": 39,
      "num_teacher": 0,
      "num_student": 1694,
      "num_person": 0,
      "website": "www.sec40.go.th",
      "latitude": 16.3244065,
      "longtitude": 101.1235639
    },
    {
      "code": 1070010000,
      "area_type_id": 1,
      "name": "ราชบุรี เขต 1",
      "region_id": 1,
      "inspection_id": 3,
      "address": "หมู่ 10 ถนนเสือป่า",
      "district_id": 716,
      "province_id": 56,
      "zip_code": 70000,
      "tel": "32321914",
      "num_school": 173,
      "num_teacher": 0,
      "num_student": 1915,
      "num_person": 0,
      "website": "www.ratchaburi1.org",
      "latitude": 13.5223408,
      "longtitude": 99.8097084
    },
    {
      "code": 1070020000,
      "area_type_id": 1,
      "name": "ราชบุรี เขต 2",
      "region_id": 1,
      "inspection_id": 3,
      "address": "56 หมู่ 4",
      "district_id": 722,
      "province_id": 56,
      "zip_code": 70120,
      "tel": "32231071",
      "num_school": 147,
      "num_teacher": 0,
      "num_student": 1691,
      "num_person": 0,
      "website": "www.rb2.go.th",
      "latitude": 13.7036988,
      "longtitude": 99.8737804
    },
    {
      "code": 1070110000,
      "area_type_id": 2,
      "name": "ราชบุรี",
      "region_id": 1,
      "inspection_id": 3,
      "address": "421 อาคาร 6 ชั้น 6 โรงเรียนราชโบริกานุเคราะห์ ถนนเสือป่า",
      "district_id": 716,
      "province_id": 56,
      "zip_code": 70000,
      "tel": "",
      "num_school": 26,
      "num_teacher": 0,
      "num_student": 1690,
      "num_person": 0,
      "website": "www.sesao8.go.th/sesao/",
      "latitude": 13.530012,
      "longtitude": 99.8107818
    },
    {
      "code": 1071010000,
      "area_type_id": 1,
      "name": "กาญจนบุรี เขต 1",
      "region_id": 1,
      "inspection_id": 3,
      "address": "8/6 หมู่ที่ 12",
      "district_id": 726,
      "province_id": 57,
      "zip_code": 71000,
      "tel": "34564330",
      "num_school": 136,
      "num_teacher": 0,
      "num_student": 1432,
      "num_person": 0,
      "website": "www.kan1.go.th",
      "latitude": 14.0012763,
      "longtitude": 99.5444116
    },
    {
      "code": 1071020000,
      "area_type_id": 1,
      "name": "กาญจนบุรี เขต 2",
      "region_id": 1,
      "inspection_id": 3,
      "address": "",
      "district_id": 734,
      "province_id": 57,
      "zip_code": 71140,
      "tel": "34579234",
      "num_school": 101,
      "num_teacher": 0,
      "num_student": 1211,
      "num_person": 0,
      "website": "www.kan2.go.th",
      "latitude": 14.1085616,
      "longtitude": 99.6660828
    },
    {
      "code": 1071030000,
      "area_type_id": 1,
      "name": "กาญจนบุรี เขต 3",
      "region_id": 1,
      "inspection_id": 3,
      "address": "777 หมู่ 1",
      "district_id": 727,
      "province_id": 57,
      "zip_code": 71150,
      "tel": "34591111",
      "num_school": 79,
      "num_teacher": 0,
      "num_student": 1249,
      "num_person": 0,
      "website": "www.kaned3.go.th",
      "latitude": 14.1167078,
      "longtitude": 99.1435165
    },
    {
      "code": 1071040000,
      "area_type_id": 1,
      "name": "กาญจนบุรี เขต 4",
      "region_id": 1,
      "inspection_id": 3,
      "address": "123/6 หมู่ที่ 1",
      "district_id": 728,
      "province_id": 57,
      "zip_code": 71160,
      "tel": "34581588",
      "num_school": 92,
      "num_teacher": 0,
      "num_student": 932,
      "num_person": 0,
      "website": "www.kan4.go.th",
      "latitude": 14.3120035,
      "longtitude": 99.5287502
    },
    {
      "code": 1071110000,
      "area_type_id": 2,
      "name": "กาญจนบุรี",
      "region_id": 1,
      "inspection_id": 3,
      "address": "65 ถนนหลักเมือง",
      "district_id": 726,
      "province_id": 57,
      "zip_code": 71000,
      "tel": "34521119",
      "num_school": 29,
      "num_teacher": 0,
      "num_student": 1560,
      "num_person": 0,
      "website": "www.sesaok.go.th",
      "latitude": 14.0208753,
      "longtitude": 399.531336
    },
    {
      "code": 1072010000,
      "area_type_id": 1,
      "name": "สุพรรณบุรี เขต 1",
      "region_id": 1,
      "inspection_id": 3,
      "address": "249/1 ถนนมาลัยแมน",
      "district_id": 739,
      "province_id": 58,
      "zip_code": 72000,
      "tel": "35521832",
      "num_school": 135,
      "num_teacher": 0,
      "num_student": 1179,
      "num_person": 0,
      "website": "www.suphan1.go.th",
      "latitude": 14.4743261,
      "longtitude": 100.0969835
    },
    {
      "code": 1072020000,
      "area_type_id": 1,
      "name": "สุพรรณบุรี เขต 2",
      "region_id": 1,
      "inspection_id": 3,
      "address": "หมู่ 4 ถนนมาลัยแมน",
      "district_id": 747,
      "province_id": 58,
      "zip_code": 72160,
      "tel": "35505684",
      "num_school": 132,
      "num_teacher": 0,
      "num_student": 1482,
      "num_person": 0,
      "website": "www.sp2.go.th",
      "latitude": 14.381075,
      "longtitude": 99.9075782
    },
    {
      "code": 1072030000,
      "area_type_id": 1,
      "name": "สุพรรณบุรี เขต 3",
      "region_id": 1,
      "inspection_id": 3,
      "address": "121 หมู่ 1",
      "district_id": 740,
      "province_id": 58,
      "zip_code": 72120,
      "tel": "35440861",
      "num_school": 125,
      "num_teacher": 0,
      "num_student": 1108,
      "num_person": 0,
      "website": "www.spb3.go.th/spb3/index.php",
      "latitude": 14.8455695,
      "longtitude": 100.0954302
    },
    {
      "code": 1072110000,
      "area_type_id": 2,
      "name": "สุพรรณบุรี",
      "region_id": 1,
      "inspection_id": 3,
      "address": "ถนนสุพรรณบุรี - ชัยนาท",
      "district_id": 739,
      "province_id": 58,
      "zip_code": 72000,
      "tel": "35535417",
      "num_school": 32,
      "num_teacher": 0,
      "num_student": 1731,
      "num_person": 0,
      "website": "www.mathayomspb.go.th",
      "latitude": 14.5142301,
      "longtitude": 100.1299926
    },
    {
      "code": 1073010000,
      "area_type_id": 1,
      "name": "นครปฐม เขต 1",
      "region_id": 1,
      "inspection_id": 3,
      "address": "161/4 ถนนเพชรเกษม",
      "district_id": 749,
      "province_id": 59,
      "zip_code": 73000,
      "tel": "",
      "num_school": 122,
      "num_teacher": 0,
      "num_student": 1673,
      "num_person": 0,
      "website": "www.nptedu.go.th",
      "latitude": 13.8139099,
      "longtitude": 100.0987215
    },
    {
      "code": 1073020000,
      "area_type_id": 1,
      "name": "นครปฐม เขต 2",
      "region_id": 1,
      "inspection_id": 3,
      "address": "1 หมู่ 1",
      "district_id": 751,
      "province_id": 59,
      "zip_code": 73120,
      "tel": "34331608",
      "num_school": 117,
      "num_teacher": 0,
      "num_student": 1466,
      "num_person": 0,
      "website": "www.npt2.go.th",
      "latitude": 13.8006741,
      "longtitude": 100.1876358
    },
    {
      "code": 1073110000,
      "area_type_id": 2,
      "name": "นครปฐม",
      "region_id": 1,
      "inspection_id": 3,
      "address": "50/1 หมู่ 6 (โรงเรียนแหลมบัววิทยา)",
      "district_id": 751,
      "province_id": 59,
      "zip_code": 73120,
      "tel": "34300500",
      "num_school": 29,
      "num_teacher": 0,
      "num_student": 1920,
      "num_person": 0,
      "website": "mathayomnpt.go.th",
      "latitude": 13.8668456,
      "longtitude": 100.1474021
    },
    {
      "code": 1074010000,
      "area_type_id": 1,
      "name": "สมุทรสาคร",
      "region_id": 1,
      "inspection_id": 4,
      "address": "2/3 หมู่ 8",
      "district_id": 756,
      "province_id": 60,
      "zip_code": 74000,
      "tel": "34411417",
      "num_school": 102,
      "num_teacher": 0,
      "num_student": 1920,
      "num_person": 0,
      "website": "www.skn.go.th",
      "latitude": 13.574748,
      "longtitude": 0.2735472
    },
    {
      "code": 1074110000,
      "area_type_id": 2,
      "name": "สมุทรสาคร-สมุทรสงคราม",
      "region_id": 1,
      "inspection_id": 4,
      "address": "1200 ถนนเอกชัย",
      "district_id": 756,
      "province_id": 60,
      "zip_code": 74000,
      "tel": "34410358",
      "num_school": 20,
      "num_teacher": 0,
      "num_student": 1332,
      "num_person": 0,
      "website": "www.sesaskss.go.th",
      "latitude": 13.5497221,
      "longtitude": 100.264374
    },
    {
      "code": 1075010000,
      "area_type_id": 1,
      "name": "สมุทรสงคราม",
      "region_id": 1,
      "inspection_id": 4,
      "address": "140 ถนนเอกชัย",
      "district_id": 759,
      "province_id": 61,
      "zip_code": null,
      "tel": "34711013",
      "num_school": 66,
      "num_teacher": 0,
      "num_student": 520,
      "num_person": 0,
      "website": "www.skm.go.th",
      "latitude": 13.42246,
      "longtitude": 0.0133819
    },
    {
      "code": 1076010000,
      "area_type_id": 1,
      "name": "เพชรบุรี เขต 1",
      "region_id": 1,
      "inspection_id": 4,
      "address": "264 หมู่ 2 ถนนคีรีรัถยา",
      "district_id": 762,
      "province_id": 62,
      "zip_code": 76000,
      "tel": "32424193",
      "num_school": 91,
      "num_teacher": 0,
      "num_student": 1167,
      "num_person": 0,
      "website": "www.petburi.go.th",
      "latitude": 13.121987,
      "longtitude": 99.936232
    },
    {
      "code": 1076020000,
      "area_type_id": 1,
      "name": "เพชรบุรี เขต 2",
      "region_id": 1,
      "inspection_id": 4,
      "address": "ถนนเพชรเกษม",
      "district_id": 766,
      "province_id": 62,
      "zip_code": 76130,
      "tel": "32473855",
      "num_school": 122,
      "num_teacher": 0,
      "num_student": 945,
      "num_person": 0,
      "website": "",
      "latitude": 12.7967785,
      "longtitude": 99.9749176
    },
    {
      "code": 1076110000,
      "area_type_id": 2,
      "name": "เพชรบุรี",
      "region_id": 1,
      "inspection_id": 4,
      "address": "300 ถนนดำเนินเกษม",
      "district_id": 762,
      "province_id": 62,
      "zip_code": 76000,
      "tel": "32401641",
      "num_school": 22,
      "num_teacher": 0,
      "num_student": 1028,
      "num_person": 0,
      "website": "sesa10.go.th",
      "latitude": 13.1018201,
      "longtitude": 99.9470389
    },
    {
      "code": 1077010000,
      "area_type_id": 1,
      "name": "ประจวบคีรีขันธ์ เขต 1",
      "region_id": 1,
      "inspection_id": 4,
      "address": "239/1 หมู่ที่ 2 บ้านหนองหิน",
      "district_id": 770,
      "province_id": 63,
      "zip_code": 77000,
      "tel": "32662031",
      "num_school": 118,
      "num_teacher": 0,
      "num_student": 1218,
      "num_person": 0,
      "website": "www.pck1.go.th",
      "latitude": 11.7369207,
      "longtitude": 99.7637994
    },
    {
      "code": 1077020000,
      "area_type_id": 1,
      "name": "ประจวบคีรีขันธ์ เขต 2",
      "region_id": 1,
      "inspection_id": 4,
      "address": "9/1 หมู่ที่ 12 ถนนเพชรเกษม",
      "district_id": 775,
      "province_id": 63,
      "zip_code": 77120,
      "tel": "32621445",
      "num_school": 87,
      "num_teacher": 0,
      "num_student": 939,
      "num_person": 0,
      "website": "www.pkn2.go.th",
      "latitude": 12.3673131,
      "longtitude": 99.8846372
    },
    {
      "code": 1077110000,
      "area_type_id": 2,
      "name": "ประจวบคีรีขันธ์",
      "region_id": 1,
      "inspection_id": 4,
      "address": "304 โรงเรียนประจวบวิทยาลัย ถนนสละชีพ",
      "district_id": 770,
      "province_id": 63,
      "zip_code": 77000,
      "tel": "32601039",
      "num_school": 18,
      "num_teacher": 0,
      "num_student": 895,
      "num_person": 0,
      "website": "www.sesaopkn.go.th",
      "latitude": 11.7993889,
      "longtitude": 99.7985645
    },
    {
      "code": 1080010000,
      "area_type_id": 1,
      "name": "นครศรีธรรมราช เขต 1",
      "region_id": 2,
      "inspection_id": 5,
      "address": "138 หมู่ 8 ถนนศรีธรรมราช",
      "district_id": 778,
      "province_id": 64,
      "zip_code": 80000,
      "tel": "75356151",
      "num_school": 109,
      "num_teacher": 0,
      "num_student": 1581,
      "num_person": 0,
      "website": "www.nst1.go.th",
      "latitude": 8.4164974,
      "longtitude": 99.9620183
    },
    {
      "code": 1080020000,
      "area_type_id": 1,
      "name": "นครศรีธรรมราช เขต 2",
      "region_id": 2,
      "inspection_id": 5,
      "address": "101 ถนนชัยชุมพล",
      "district_id": 786,
      "province_id": 64,
      "zip_code": 80110,
      "tel": "75411670",
      "num_school": 188,
      "num_teacher": 0,
      "num_student": 2004,
      "num_person": 0,
      "website": "www.nst2.go.th",
      "latitude": 8.1649761,
      "longtitude": 99.6802519
    },
    {
      "code": 1080030000,
      "area_type_id": 1,
      "name": "นครศรีธรรมราช เขต 3",
      "region_id": 2,
      "inspection_id": 5,
      "address": "99 หมู่ที่ 9 ถนนบ่อล้อ - เชียรใหญ่",
      "district_id": 783,
      "province_id": 64,
      "zip_code": 80190,
      "tel": "75362701",
      "num_school": 233,
      "num_teacher": 0,
      "num_student": 1635,
      "num_person": 0,
      "website": "www.nst3.go.th",
      "latitude": 8.1326758,
      "longtitude": 0.1213871
    },
    {
      "code": 1080040000,
      "area_type_id": 1,
      "name": "นครศรีธรรมราช เขต 4",
      "region_id": 2,
      "inspection_id": 5,
      "address": "160/4 หมู่ที่ 1",
      "district_id": 785,
      "province_id": 64,
      "zip_code": 80160,
      "tel": "75522903",
      "num_school": 133,
      "num_teacher": 0,
      "num_student": 1961,
      "num_person": 0,
      "website": "www.pnst4.go.th",
      "latitude": 8.6672113,
      "longtitude": 99.931361
    },
    {
      "code": 1080110000,
      "area_type_id": 2,
      "name": "นครศรีธรรมราช",
      "region_id": 2,
      "inspection_id": 5,
      "address": "12/13 หมู่ที่ 2 ถนนกะโรม",
      "district_id": 778,
      "province_id": 64,
      "zip_code": null,
      "tel": "75345050",
      "num_school": 71,
      "num_teacher": 0,
      "num_student": 3528,
      "num_person": 0,
      "website": "www.sea12.go.th",
      "latitude": 8.4358519,
      "longtitude": 99.9392771
    },
    {
      "code": 1081010000,
      "area_type_id": 1,
      "name": "กระบี่",
      "region_id": 2,
      "inspection_id": 6,
      "address": "ถนนกระบี่",
      "district_id": 801,
      "province_id": 65,
      "zip_code": 81000,
      "tel": "75611182",
      "num_school": 210,
      "num_teacher": 0,
      "num_student": 2042,
      "num_person": 0,
      "website": "www.krabiedu.net",
      "latitude": 8.0567074,
      "longtitude": 98.914655
    },
    {
      "code": 1082010000,
      "area_type_id": 1,
      "name": "พังงา",
      "region_id": 2,
      "inspection_id": 6,
      "address": "14 ซอยชุมนุมราษฎร์ ถนนเพชรเกษม",
      "district_id": 809,
      "province_id": 66,
      "zip_code": 82000,
      "tel": "76412180",
      "num_school": 135,
      "num_teacher": 0,
      "num_student": 1491,
      "num_person": 0,
      "website": "www.phangngaedarea.go.th",
      "latitude": 8.4609595,
      "longtitude": 98.533126
    },
    {
      "code": 1082110000,
      "area_type_id": 2,
      "name": "พังงา-ภูเก็ต-ระนอง",
      "region_id": 2,
      "inspection_id": 6,
      "address": "702 ถนนเพชรเกษม",
      "district_id": 809,
      "province_id": 66,
      "zip_code": 82000,
      "tel": "76481529",
      "num_school": 27,
      "num_teacher": 0,
      "num_student": 1306,
      "num_person": 0,
      "website": "",
      "latitude": 8.4386317,
      "longtitude": 98.5182569
    },
    {
      "code": 1083010000,
      "area_type_id": 1,
      "name": "ภูเก็ต",
      "region_id": 2,
      "inspection_id": 6,
      "address": "4/4 ถนนแม่หลวน",
      "district_id": 817,
      "province_id": 67,
      "zip_code": 83000,
      "tel": "76211591",
      "num_school": 49,
      "num_teacher": 0,
      "num_student": 867,
      "num_person": 0,
      "website": "phuketarea.go.th",
      "latitude": 7.889281,
      "longtitude": 8.3848836
    },
    {
      "code": 1084010000,
      "area_type_id": 1,
      "name": "สุราษฎร์ธานี เขต 1",
      "region_id": 2,
      "inspection_id": 5,
      "address": "389/5 ถนนดอนนก",
      "district_id": 820,
      "province_id": 68,
      "zip_code": 84000,
      "tel": "77273298",
      "num_school": 117,
      "num_teacher": 0,
      "num_student": 1326,
      "num_person": 0,
      "website": "www.surat1.go.th",
      "latitude": 9.1328443,
      "longtitude": 99.3468419
    },
    {
      "code": 1084020000,
      "area_type_id": 1,
      "name": "สุราษฎร์ธานี เขต 2",
      "region_id": 2,
      "inspection_id": 5,
      "address": "109/1 ถนนธราธิบดี",
      "district_id": 836,
      "province_id": 68,
      "zip_code": 84130,
      "tel": "77315010",
      "num_school": 179,
      "num_teacher": 0,
      "num_student": 2885,
      "num_person": 0,
      "website": "www.surat2.go.th",
      "latitude": 9.1081293,
      "longtitude": 99.2340023
    },
    {
      "code": 1084030000,
      "area_type_id": 1,
      "name": "สุราษฎร์ธานี เขต 3",
      "region_id": 2,
      "inspection_id": 5,
      "address": "หมู่ที่ 1",
      "district_id": 834,
      "province_id": 68,
      "zip_code": 84190,
      "tel": "77361658",
      "num_school": 152,
      "num_teacher": 0,
      "num_student": 1515,
      "num_person": 0,
      "website": "www.surat3.go.th",
      "latitude": 8.6432058,
      "longtitude": 99.3483034
    },
    {
      "code": 1084110000,
      "area_type_id": 2,
      "name": "สุราษฎร์ธานี-ชุมพร",
      "region_id": 2,
      "inspection_id": 5,
      "address": "261/29 ถนน",
      "district_id": 820,
      "province_id": 68,
      "zip_code": 84000,
      "tel": "077203372-4",
      "num_school": 66,
      "num_teacher": 0,
      "num_student": 2920,
      "num_person": 0,
      "website": "",
      "latitude": 9.1219765,
      "longtitude": 99.3507858
    },
    {
      "code": 1085010000,
      "area_type_id": 1,
      "name": "ระนอง",
      "region_id": 2,
      "inspection_id": 6,
      "address": "2/10 หมู่ 3",
      "district_id": 839,
      "province_id": 69,
      "zip_code": 85000,
      "tel": "77800028",
      "num_school": 77,
      "num_teacher": 0,
      "num_student": 1060,
      "num_person": 0,
      "website": "www.rnedu.go.th",
      "latitude": 9.8795191,
      "longtitude": 98.6279442
    },
    {
      "code": 1086010000,
      "area_type_id": 1,
      "name": "ชุมพร เขต 1",
      "region_id": 2,
      "inspection_id": 5,
      "address": "60/1 หมู่ที่ 5",
      "district_id": 844,
      "province_id": 70,
      "zip_code": 86190,
      "tel": "77576253",
      "num_school": 107,
      "num_teacher": 0,
      "num_student": 1330,
      "num_person": 0,
      "website": "www.cpn.1.go.th",
      "latitude": 10.4911514,
      "longtitude": 499.127723
    },
    {
      "code": 1086020000,
      "area_type_id": 1,
      "name": "ชุมพร เขต 2",
      "region_id": 2,
      "inspection_id": 5,
      "address": "27 ซอย 2 ถนนประชาราษฏร์",
      "district_id": 847,
      "province_id": 70,
      "zip_code": 86110,
      "tel": "77545101",
      "num_school": 119,
      "num_teacher": 0,
      "num_student": 1112,
      "num_person": 0,
      "website": "www.cpn2.go.th",
      "latitude": 9.9464988,
      "longtitude": 99.0766306
    },
    {
      "code": 1090010000,
      "area_type_id": 1,
      "name": "สงขลา เขต 1",
      "region_id": 2,
      "inspection_id": 5,
      "address": "176 หมู่ที่ 4 ถนนสงขลา - นาทวี",
      "district_id": 852,
      "province_id": 71,
      "zip_code": 90000,
      "tel": "74337341",
      "num_school": 137,
      "num_teacher": 0,
      "num_student": 1664,
      "num_person": 0,
      "website": "www.ska1.go.th",
      "latitude": 7.096315,
      "longtitude": 0.569061
    },
    {
      "code": 1090020000,
      "area_type_id": 1,
      "name": "สงขลา เขต 2",
      "region_id": 2,
      "inspection_id": 5,
      "address": "2 ถนนสาครมงคล",
      "district_id": 862,
      "province_id": 71,
      "zip_code": 90110,
      "tel": "74258216",
      "num_school": 126,
      "num_teacher": 0,
      "num_student": 1870,
      "num_person": 0,
      "website": "www.ska2.go.th/home",
      "latitude": 7.004972,
      "longtitude": 0.4550864
    },
    {
      "code": 1090030000,
      "area_type_id": 1,
      "name": "สงขลา เขต 3",
      "region_id": 3,
      "inspection_id": 5,
      "address": "192 หมู่ 2",
      "district_id": 855,
      "province_id": 71,
      "zip_code": 90160,
      "tel": "74373035",
      "num_school": 193,
      "num_teacher": 0,
      "num_student": 2109,
      "num_person": 0,
      "website": "www.sk3.go.th",
      "latitude": 6.7452683,
      "longtitude": 0.6594691
    },
    {
      "code": 1090110000,
      "area_type_id": 2,
      "name": "สงขลา-สตูล",
      "region_id": 3,
      "inspection_id": 5,
      "address": "174 ถนนสงขลา - นาทวี",
      "district_id": 852,
      "province_id": 71,
      "zip_code": 90000,
      "tel": "074260191-2",
      "num_school": 53,
      "num_teacher": 0,
      "num_student": 2701,
      "num_person": 0,
      "website": "www.spmsongkhlasatun.go.th",
      "latitude": 7.1656372,
      "longtitude": 0.6161567
    },
    {
      "code": 1091010000,
      "area_type_id": 1,
      "name": "สตูล",
      "region_id": 3,
      "inspection_id": 5,
      "address": "884 หมู่ 4",
      "district_id": 868,
      "province_id": 72,
      "zip_code": 91000,
      "tel": "74721380",
      "num_school": 159,
      "num_teacher": 0,
      "num_student": 2176,
      "num_person": 0,
      "website": "www.sesao.go.th",
      "latitude": 6.6493934,
      "longtitude": 0.0774303
    },
    {
      "code": 1092010000,
      "area_type_id": 1,
      "name": "ตรัง เขต 1",
      "region_id": 2,
      "inspection_id": 6,
      "address": "193 หมู่ที่ 12 ถนนตรัง - ปะเหลียน",
      "district_id": 875,
      "province_id": 73,
      "zip_code": 92000,
      "tel": "75572027",
      "num_school": 132,
      "num_teacher": 0,
      "num_student": 1844,
      "num_person": 0,
      "website": "www.trang1.go.th",
      "latitude": 7.5057757,
      "longtitude": 799.63076
    },
    {
      "code": 1092020000,
      "area_type_id": 1,
      "name": "ตรัง เขต 2",
      "region_id": 2,
      "inspection_id": 6,
      "address": "359 ถนนเพชรเกษม",
      "district_id": 880,
      "province_id": 73,
      "zip_code": 92130,
      "tel": "75272371",
      "num_school": 134,
      "num_teacher": 0,
      "num_student": 1348,
      "num_person": 0,
      "website": "www.trang2.go.th",
      "latitude": 7.7924067,
      "longtitude": 99.6306824
    },
    {
      "code": 1092110000,
      "area_type_id": 2,
      "name": "ตรัง-กระบี่",
      "region_id": 2,
      "inspection_id": 6,
      "address": "2 หมู่ 3 ถนนตรัง-สิเกา",
      "district_id": 875,
      "province_id": 73,
      "zip_code": 92000,
      "tel": "75213752",
      "num_school": 44,
      "num_teacher": 0,
      "num_student": 2262,
      "num_person": 0,
      "website": "www.matthayom13.go.th",
      "latitude": 7.5575525,
      "longtitude": 99.5867062
    },
    {
      "code": 1093010000,
      "area_type_id": 1,
      "name": "พัทลุง เขต 1",
      "region_id": 2,
      "inspection_id": 5,
      "address": "14 หมู่ 1 ถนนเอเชีย",
      "district_id": 885,
      "province_id": 74,
      "zip_code": 93000,
      "tel": "74671655",
      "num_school": 116,
      "num_teacher": 0,
      "num_student": 1119,
      "num_person": 0,
      "website": "",
      "latitude": 7.6170286,
      "longtitude": 0.0496734
    },
    {
      "code": 1093020000,
      "area_type_id": 1,
      "name": "พัทลุง เขต 2",
      "region_id": 2,
      "inspection_id": 5,
      "address": "2/8 หมู่ 1",
      "district_id": 888,
      "province_id": 74,
      "zip_code": 93160,
      "tel": "74695911",
      "num_school": 114,
      "num_teacher": 0,
      "num_student": 1037,
      "num_person": 0,
      "website": "www.phatthalung2.go.th",
      "latitude": 7.351468,
      "longtitude": 0.131782
    },
    {
      "code": 1093110000,
      "area_type_id": 2,
      "name": "พัทลุง",
      "region_id": 2,
      "inspection_id": 5,
      "address": "อาคารอุทยานการศึกษาอุดมปัญญา หมู่ที่ 9",
      "district_id": 889,
      "province_id": 74,
      "zip_code": 93110,
      "tel": "630810910",
      "num_school": 27,
      "num_teacher": 0,
      "num_student": 1046,
      "num_person": 0,
      "website": "seapt.go.th",
      "latitude": 7.7093148,
      "longtitude": 99.9934643
    },
    {
      "code": 1094010000,
      "area_type_id": 1,
      "name": "ปัตตานี เขต 1",
      "region_id": 3,
      "inspection_id": 7,
      "address": "หมู่ที่ 6 ถนนปากน้ำ",
      "district_id": 896,
      "province_id": 75,
      "zip_code": 94000,
      "tel": "73460079",
      "num_school": 136,
      "num_teacher": 0,
      "num_student": 2095,
      "num_person": 0,
      "website": "www.pattani1.go.th",
      "latitude": 6.8924031,
      "longtitude": 1.2496142
    },
    {
      "code": 1094020000,
      "area_type_id": 1,
      "name": "ปัตตานี เขต 2",
      "region_id": 3,
      "inspection_id": 7,
      "address": "35/16 หมู่ที่ 7 ถนนเพชรเกษม",
      "district_id": 897,
      "province_id": 75,
      "zip_code": 94120,
      "tel": "73431196",
      "num_school": 115,
      "num_teacher": 0,
      "num_student": 2018,
      "num_person": 0,
      "website": "wwwpattani2.go.th",
      "latitude": 6.7299136,
      "longtitude": 1.0977531
    },
    {
      "code": 1094030000,
      "area_type_id": 1,
      "name": "ปัตตานี เขต 3",
      "region_id": 3,
      "inspection_id": 7,
      "address": "83 หมู่ที่ 3 ถนนเพชรเกษม",
      "district_id": 902,
      "province_id": 75,
      "zip_code": 94190,
      "tel": "73452100",
      "num_school": 67,
      "num_teacher": 0,
      "num_student": 1113,
      "num_person": 0,
      "website": "www.pattani3.go.th",
      "latitude": 6.7143882,
      "longtitude": 1.5206006
    },
    {
      "code": 1094110000,
      "area_type_id": 2,
      "name": "ปัตตานี",
      "region_id": 3,
      "inspection_id": 7,
      "address": "2 ถนนสะบารัง",
      "district_id": 896,
      "province_id": 75,
      "zip_code": 94000,
      "tel": "73332551",
      "num_school": 17,
      "num_teacher": 0,
      "num_student": 486,
      "num_person": 0,
      "website": "sesaopn.go.th",
      "latitude": 6.8701056,
      "longtitude": 1.2518641
    },
    {
      "code": 1095010000,
      "area_type_id": 1,
      "name": "ยะลา เขต 1",
      "region_id": 3,
      "inspection_id": 7,
      "address": "12 ถนนสุขยางค์",
      "district_id": 908,
      "province_id": 76,
      "zip_code": 95000,
      "tel": "73211707",
      "num_school": 110,
      "num_teacher": 0,
      "num_student": 2234,
      "num_person": 0,
      "website": "www.yala1.go.th/2019",
      "latitude": 6.5468435,
      "longtitude": 1.2835998
    },
    {
      "code": 1095020000,
      "area_type_id": 1,
      "name": "ยะลา เขต 2",
      "region_id": 3,
      "inspection_id": 7,
      "address": "หมู่ที่ 2 โรงเรียนบันนังสตาอินทรฉัตรฯ ถนนสุขยางค์",
      "district_id": 910,
      "province_id": 76,
      "zip_code": 95130,
      "tel": "73289412",
      "num_school": 68,
      "num_teacher": 0,
      "num_student": 1484,
      "num_person": 0,
      "website": "www.yala2.go.th",
      "latitude": 6.268015,
      "longtitude": 1.2661245
    },
    {
      "code": 1095030000,
      "area_type_id": 1,
      "name": "ยะลา เขต 3",
      "region_id": 3,
      "inspection_id": 7,
      "address": "34 หมู่ 7 ถนนรัตนกิจ",
      "district_id": 909,
      "province_id": 76,
      "zip_code": 95110,
      "tel": "73232443",
      "num_school": 32,
      "num_teacher": 0,
      "num_student": 760,
      "num_person": 0,
      "website": "www.yala3.go.th",
      "latitude": 5.7734598,
      "longtitude": 1.0844323
    },
    {
      "code": 1095110000,
      "area_type_id": 2,
      "name": "ยะลา",
      "region_id": 3,
      "inspection_id": 7,
      "address": "125 ถนนพิพิธภักดี",
      "district_id": 908,
      "province_id": 76,
      "zip_code": 95000,
      "tel": "73212820",
      "num_school": 12,
      "num_teacher": 0,
      "num_student": 433,
      "num_person": 0,
      "website": "sesaoyala.org",
      "latitude": 6.5540579,
      "longtitude": 1.2886163
    },
    {
      "code": 1096010000,
      "area_type_id": 1,
      "name": "นราธิวาส เขต 1",
      "region_id": 3,
      "inspection_id": 7,
      "address": "222 หมู่ 10",
      "district_id": 916,
      "province_id": 77,
      "zip_code": 96000,
      "tel": "73532300",
      "num_school": 148,
      "num_teacher": 0,
      "num_student": 1835,
      "num_person": 0,
      "website": "www.narathiwat1.go.th",
      "latitude": 6.4147247,
      "longtitude": 1.7987877
    },
    {
      "code": 1096020000,
      "area_type_id": 1,
      "name": "นราธิวาส เขต 2",
      "region_id": 3,
      "inspection_id": 7,
      "address": "38/4 หมู่ที่ 3",
      "district_id": 925,
      "province_id": 77,
      "zip_code": 96120,
      "tel": "73530792",
      "num_school": 117,
      "num_teacher": 0,
      "num_student": 2597,
      "num_person": 0,
      "website": "www.nara2.go.th",
      "latitude": 6.0450935,
      "longtitude": 1.9935573
    },
    {
      "code": 1096030000,
      "area_type_id": 1,
      "name": "นราธิวาส เขต 3",
      "region_id": 3,
      "inspection_id": 7,
      "address": "167 ม.1 ถนนระแงะมรรคา",
      "district_id": 920,
      "province_id": 77,
      "zip_code": 96130,
      "tel": "73672180",
      "num_school": 75,
      "num_teacher": 0,
      "num_student": 1710,
      "num_person": 0,
      "website": "www.narathiwat3.go.th",
      "latitude": 6.2953843,
      "longtitude": 1.7220696
    },
    {
      "code": 1096110000,
      "area_type_id": 2,
      "name": "นราธิวาส",
      "region_id": 3,
      "inspection_id": 7,
      "address": "789 หมู่ 8",
      "district_id": 916,
      "province_id": 77,
      "zip_code": 96000,
      "tel": "73511984",
      "num_school": 17,
      "num_teacher": 0,
      "num_student": 981,
      "num_person": 0,
      "website": "www.sesao15.go.th/web15/",
      "latitude": 6.4273221,
      "longtitude": 1.7892597
    }
   ]
